id,code,gather_name,name,period,alias_name,city,city_id,district,district_id,zone,block_id,address,geo_point,geo_fence,is_within,status,created_at,updated_at,deleted_at,distance,geo_point_address,geo_point_name,address_point,name_point,confidence,construction_confidence,nearest,recover,community_type,mark_status,sync_tag,clean_status,is_residential,longitude,latitude,geo_point_name_longitude,geo_point_name_latitude,cre_ts,cre_user,upd_ts,upd_user
5452,31011500022,,鄂尔多斯国际大厦,,,上海市,1,浦东新区,310115,陆家嘴,1000904,浦东南路1118号,POINT(121.5213026 31.23410372),"MULTIPOLYGON(((121.521718 31.233127,121.522212 31.233281,121.52241 31.23366,121.522374 31.233783,121.5217 31.233551,121.521763 31.233443,121.521583 31.233374,121.5217 31.233119,121.521718 31.233127)))",1,1,1505902058,1537234978,0,0,POINT(121.52220327853 31.233375534904),POINT(121.521476 31.232919),浦东南路1088号11楼,,14,4,-1,0,,1,1,2,0,121.5213026,31.23410372,121.521476,31.232919,2018-11-07 00:57:50,dw_etl,2018-11-07 00:57:50,dw_etl
5661,31011500055,,浦电路57号,,,上海市,1,浦东新区,310115,陆家嘴,1000904,浦电路57号,POINT(121.5231459 31.22318806),"MULTIPOLYGON(((121.522647 31.223205,121.522755 31.222974,121.523371 31.223155,121.523254 31.223352,121.522656 31.223201,121.522647 31.223205)))",1,1,1505902058,1537234978,0,0,POINT(121.52285695478 31.223113864034),null,浦电路57,,10,0,-1,0,,1,1,2,0,121.5231459,31.22318806,null,null,2018-11-07 00:57:50,dw_etl,2018-11-07 00:57:50,dw_etl
5702,31011500063,,21世纪中心大厦,,,上海市,1,浦东新区,310115,陆家嘴,1000904,世纪大道路201号,POINT(121.5162704 31.24151582),"MULTIPOLYGON(((121.516073 31.240697,121.51583 31.240559,121.516037 31.239555,121.516091 31.2392,121.516531 31.2392,121.517169 31.239401,121.517474 31.240242,121.516073 31.240697)))",1,1,1505902058,1537234978,0,0,POINT(121.51605104011 31.241183833945),POINT(121.516733 31.239436),世纪大道201号,,10,0,-1,0,,1,1,2,0,121.5162704,31.24151582,121.516733,31.239436,2018-11-07 00:57:50,dw_etl,2018-11-07 00:57:50,dw_etl
5802,31011500081,,滨江大厦,,,上海市,1,浦东新区,310115,陆家嘴,1000904,张杨路88号,POINT(121.5166296 31.23001922),"MULTIPOLYGON(((121.516263 31.230068,121.516272 31.230075,121.51627436134606 31.230070308792484,121.516263 31.230068)),((121.51627436134606 31.230070308792484,121.517134 31.230245,121.517332 31.229713,121.516497 31.229628,121.51627436134606 31.230070308792484)))",1,1,1505902058,1537234979,0,0,POINT(121.5167991687 31.230080863837),POINT(121.516803 31.229798),张杨路22-1-临,滨江大厦,1195,0,-1,0,,1,1,2,0,121.5166296,31.23001922,121.516803,31.229798,2018-11-07 00:57:50,dw_etl,2018-11-07 00:57:50,dw_etl
6304,31011500151,,四季汇,,,上海市,1,浦东新区,310115,陆家嘴,1000904,世纪大道210号,POINT(121.516213 31.23989),"MULTIPOLYGON(((121.516133 31.240415,121.515953 31.239936,121.516412 31.239797,121.516654 31.240245,121.516133 31.240423,121.516133 31.240415)))",1,1,1505902058,1537234980,0,0,POINT(121.51664921456 31.239860468296),POINT(121.516301 31.239885),,,14,4,-1,0,,1,1,2,1,121.516213,31.23989,121.516301,31.239885,2018-11-07 00:57:50,dw_etl,2018-11-07 00:57:50,dw_etl
6605,31011500196,,浦东南路855号,,,上海市,1,浦东新区,310115,陆家嘴,1000904,浦东南路855号,POINT(121.52131642641 31.237933423262),"MULTIPOLYGON(((121.520779 31.238299,121.521112 31.237678,121.521291 31.237713,121.522113 31.237998,121.522104 31.238052,121.521898 31.23855,121.520869 31.23833,121.520779 31.238299)))",1,0,1505902058,1520235565,1520235565,0,POINT(121.52131642641 31.237933423262),null,,,2,2,-1,0,,1,1,2,1,121.52131642641,31.237933423262,null,null,2018-11-07 00:57:50,dw_etl,2018-11-07 00:57:50,dw_etl
6849,31011500230,,浦东大道140弄,,上港小区(搜房),上海市,1,浦东新区,310115,陆家嘴,1000904,浦东大道140弄,POINT(121.5215675 31.24479628),POINT(-1 -1),1,0,1505902058,1530871073,1530871073,0,POINT(121.52157389155 31.243996483113),null,,,3,2,-1,0,,10,1,2,1,121.5215675,31.24479628,null,null,2018-11-07 00:57:50,dw_etl,2018-11-07 00:57:50,dw_etl
7164,31011500272,,太平金融大厦,,,上海市,1,浦东新区,310115,陆家嘴,1000904,银城中路488号,POINT(121.5104267 31.2396455),"MULTIPOLYGON(((121.509618 31.240255,121.509672 31.239306,121.510544 31.239383,121.510481 31.240078,121.510211 31.240224,121.509618 31.240255)))",1,1,1505902058,1537234982,0,0,POINT(121.51000804192 31.239726160936),POINT(121.509931 31.239889),银城中路488号,,1167,4,-1,0,,1,1,2,0,121.5104267,31.2396455,121.509931,31.239889,2018-11-07 00:57:50,dw_etl,2018-11-07 00:57:50,dw_etl
7189,31011500277,,东宁路350号,,,上海市,1,浦东新区,310115,陆家嘴,1000904,东宁路350号,POINT(121.516957 31.239017),POINT(-1 -1),1,1,1505902058,1537234982,0,0,POINT(121.51655259192 31.23904745527),null,浦城路40号,东昌小区,42,0,-1,0,,3,1,2,0,121.516957,31.239017,null,null,2018-11-07 00:57:50,dw_etl,2018-11-07 00:57:50,dw_etl
7347,31011500303,,普联大厦,,,上海市,1,浦东新区,310115,陆家嘴,1000904,乳山路98号,POINT(121.5260355 31.24103699),"MULTIPOLYGON(((121.526764 31.240304,121.52702 31.240427,121.527142 31.240107,121.526913 31.240014,121.526764 31.240304)))",1,1,1505902058,1537234982,0,0,POINT(121.52688428476 31.240477734416),POINT(121.526805 31.240228),崂山路277号,,1167,4,-1,0,,1,1,2,0,121.5260355,31.24103699,121.526805,31.240228,2018-11-07 00:57:50,dw_etl,2018-11-07 00:57:50,dw_etl
7810,31011500385,,昌邑路28弄,,昌邑小区(搜房),上海市,1,浦东新区,310115,陆家嘴,1000904,昌邑路28号,POINT(121.519562 31.245899),"MULTIPOLYGON(((121.519569 31.245945,121.519519 31.245872,121.519596 31.245891,121.519587 31.245941,121.519569 31.245945)))",1,1,1505902058,1537234983,0,0,POINT(121.54394782519 31.251332357021),null,浦东大道307弄4,昌邑小区,1163,1026,-1,0,,1,1,2,1,121.519562,31.245899,null,null,2018-11-07 00:57:50,dw_etl,2018-11-07 00:57:50,dw_etl
7826,31011500389,,浦发大厦,,,上海市,1,浦东新区,310115,陆家嘴,1000904,浦东南路588号,POINT(121.5180998 31.24116525),"MULTIPOLYGON(((121.518488 31.241458,121.517914 31.241211,121.517806 31.240852,121.518996 31.24042,121.519099 31.240486,121.518542 31.241416,121.518488 31.241458)))",1,1,1505902058,1537234983,0,0,POINT(121.51808591768 31.240874135066),POINT(121.517922 31.241042),浦东南路588号-b单元-1楼,浦东发展银行大厦,1162,0,-1,0,,1,1,2,0,121.5180998,31.24116525,121.517922,31.241042,2018-11-07 00:57:50,dw_etl,2018-11-07 00:57:50,dw_etl
7850,31011500394,,浦东南路1780弄,,浦东南路1780弄小区(搜房),上海市,1,浦东新区,310115,陆家嘴,1000904,浦东南路1780弄,POINT(121.525024 31.222587),"MULTIPOLYGON(((121.524986 31.222637,121.525255 31.222653,121.525215 31.222174,121.524923 31.222201,121.524977 31.222641,121.524986 31.222637)))",1,1,1505902058,1537234983,0,0,POINT(121.52516551012 31.222630733299),null,浦东南路1780弄-1-1号-临,东明新村小区,1195,1026,-1,0,,1,1,2,1,121.525024,31.222587,null,null,2018-11-07 00:57:50,dw_etl,2018-11-07 00:57:50,dw_etl
7866,31011500399,,新梅联合广场,,,上海市,1,浦东新区,310115,陆家嘴,1000904,浦东南路999号,POINT(121.5218062 31.23618755),"MULTIPOLYGON(((121.522493 31.235248,121.522799 31.235406,121.523028 31.235306,121.523001 31.235117,121.52252 31.235063,121.522466 31.235136,121.522466 31.235136,121.522457 31.235148,121.522493 31.235248)))",1,1,1505902058,1537234983,0,0,POINT(121.52270648861 31.235370329759),POINT(121.522763 31.2354),浦东南路941号,浦东金融广场,1163,0,-1,0,,1,1,2,0,121.5218062,31.23618755,121.522763,31.2354,2018-11-07 00:57:50,dw_etl,2018-11-07 00:57:50,dw_etl
7902,31011500405,,乳山五村,,,上海市,1,浦东新区,310115,陆家嘴,1000904,商城路918弄商城路906号商城路930号,POINT(121.5296305 31.23784369),"MULTIPOLYGON(((121.528766 31.238052,121.529912 31.238608,121.530428 31.237489,121.52966 31.237087,121.529584 31.237087,121.529251 31.23718,121.528771 31.238006,121.528766 31.238052)))",1,1,1505902058,1537234983,0,0,POINT(121.52949305738 31.238373084803),POINT(121.529614 31.237797),东方路777号3楼,乳山五村,1195,1026,-1,0,,1,1,2,1,121.5296305,31.23784369,121.529614,31.237797,2018-11-07 00:57:50,dw_etl,2018-11-07 00:57:50,dw_etl
8158,31011500450,,荣成小区,,,上海市,1,浦东新区,310115,陆家嘴,1000904,浦东大道501弄,POINT(121.52503 31.248362),"MULTIPOLYGON(((121.524594 31.248632,121.524981 31.247551,121.525214 31.247474,121.525582 31.246209,121.526292 31.246386,121.525924 31.247598,121.525196 31.248732,121.524639 31.248671,121.524594 31.248632)))",1,1,1505902058,1537234984,0,0,POINT(121.52497892218 31.248125946553),POINT(121.525672 31.246824),,,1163,1026,-1,0,,1,1,2,1,121.52503,31.248362,121.525672,31.246824,2018-11-07 00:57:50,dw_etl,2018-11-07 00:57:50,dw_etl
8165,31011500452,,新大陆广场,,,上海市,1,浦东新区,310115,陆家嘴,1000904,南泉北路588号,POINT(121.524855 31.234595),"MULTIPOLYGON(((121.524857 31.234641,121.524817 31.234587,121.524889 31.234549,121.524893 31.234603,121.524857 31.234641)))",1,1,1505902058,1537234984,0,0,POINT(121.52469392398 31.234622413143),POINT(121.525344 31.235558),,,1163,0,-1,0,,1,1,2,0,121.524855,31.234595,121.525344,31.235558,2018-11-07 00:57:50,dw_etl,2018-11-07 00:57:50,dw_etl
8512,31011500501,,申金大厦,,,上海市,1,浦东新区,310115,陆家嘴,1000904,商城路297号,POINT(121.516933 31.235048),"MULTIPOLYGON(((121.517146 31.23538,121.517344 31.234816,121.51685 31.234674,121.516778 31.234677,121.516675 31.235002,121.516697 31.235121,121.517088 31.235364,121.517146 31.23538)))",1,1,1505902058,1537234985,0,0,POINT(121.51682393498 31.234951331796),POINT(121.517275 31.234985),,,1195,1026,-1,0,,1,1,2,0,121.516933,31.235048,121.517275,31.234985,2018-11-07 00:57:50,dw_etl,2018-11-07 00:57:50,dw_etl
8539,31011500506,,瑞苑公寓,,,上海市,1,浦东新区,310115,陆家嘴,1000904,浦东大道3号,POINT(121.517648 31.245746),"MULTIPOLYGON(((121.517147 31.245631,121.51783 31.246001,121.51809 31.245507,121.5173 31.245291,121.517147 31.2456,121.517147 31.245631)))",1,1,1505902058,1537234985,0,0,POINT(121.51749575611 31.245467452491),POINT(121.518111 31.245493),,,5291,1026,-1,0,,1,1,2,1,121.517648,31.245746,121.518111,31.245493,2018-11-07 00:57:50,dw_etl,2018-11-07 00:57:50,dw_etl
8915,31011500556,,东方路402弄,,,上海市,1,浦东新区,310115,陆家嘴,1000904,东方路402弄,POINT(121.52776 31.239624),"MULTIPOLYGON(((121.527749 31.239662,121.527708 31.239597,121.527807 31.239628,121.527771 31.239662,121.527749 31.239662)))",1,0,1505902058,1520232202,1520232202,0,POINT(121.52832909778 31.239778476686),POINT(121.528942 31.239958),,,2,0,-1,0,,1,1,2,1,121.52776,31.239624,121.528942,31.239958,2018-11-07 00:57:50,dw_etl,2018-11-07 00:57:50,dw_etl
8920,31011500558,,集成大厦,,集成公寓(搜房),上海市,1,浦东新区,310115,陆家嘴,1000904,浦电路48弄18号,POINT(121.522976 31.224638),"MULTIPOLYGON(((121.522583 31.225414,121.523463 31.225707,121.52358 31.225607,121.523773 31.225255,121.523396 31.225093,121.523517 31.224792,121.523225 31.224665,121.523059 31.224599,121.522848 31.224538,121.522601 31.225371,121.522583 31.225414)))",1,1,1505902058,1537234985,0,0,POINT(121.52311540357 31.224984179562),POINT(121.523212 31.224845),,,1195,1026,-1,0,,1,1,2,1,121.522976,31.224638,121.523212,31.224845,2018-11-07 00:57:50,dw_etl,2018-11-07 00:57:50,dw_etl
8985,31011500571,,东宁路360号,,,上海市,1,浦东新区,310115,陆家嘴,1000904,东宁路360号,POINT(121.516807 31.238956),POINT(-1 -1),1,1,1505902058,1537234986,0,0,POINT(121.51692041299 31.239153191221),null,,,10,0,-1,0,,3,1,2,0,121.516807,31.238956,null,null,2018-11-07 00:57:50,dw_etl,2018-11-07 00:57:50,dw_etl
9080,31011500586,,东方路268号,,,上海市,1,浦东新区,310115,陆家嘴,1000904,东方路286号,POINT(121.527883 31.242325),"MULTIPOLYGON(((121.527881 31.242367,121.527827 31.242329,121.527894 31.242302,121.527912 31.242356,121.527881 31.242367)))",1,0,1505902058,1520233062,1520233062,0,POINT(121.5279490885 31.242345719871),POINT(121.527756 31.24257),东方路286号,崂山二村,2,2,-1,0,,1,1,2,1,121.527883,31.242325,121.527756,31.24257,2018-11-07 00:57:50,dw_etl,2018-11-07 00:57:50,dw_etl
9122,31011500595,,乳山路74号,,,上海市,1,浦东新区,310115,陆家嘴,1000904,乳山路74号,POINT(121.524128 31.239486),"MULTIPOLYGON(((121.524126 31.239528,121.524076 31.23947,121.524162 31.239467,121.524139 31.239521,121.524126 31.239528)))",1,1,1505902058,1537234986,0,0,POINT(121.52420553054 31.239544798146),null,乳山路74号,乳山二村,10,1024,-1,0,,1,1,2,1,121.524128,31.239486,null,null,2018-11-07 00:57:50,dw_etl,2018-11-07 00:57:50,dw_etl
9322,31011500624,,上海中心大厦,,,上海市,1,浦东新区,310115,陆家嘴,1000904,银城中路501号,POINT(121.5128676 31.23975962),"MULTIPOLYGON(((121.510936 31.238328,121.510757 31.240088,121.513218 31.239779,121.51355 31.238482,121.510954 31.238312,121.510936 31.238328)))",1,1,1505902058,1537234986,0,0,POINT(121.51286763851 31.239759620005),POINT(121.511922 31.239504),银城中路501号,,1163,0,-1,0,,1,1,2,0,121.5128676,31.23975962,121.511922,31.239504,2018-11-07 00:57:50,dw_etl,2018-11-07 00:57:50,dw_etl
9579,31011500663,,浦电路46号,,,上海市,1,浦东新区,310115,陆家嘴,1000904,浦电路46号,POINT(121.52365 31.223655),"MULTIPOLYGON(((121.523657 31.223701,121.523607 31.223639,121.523684 31.223639,121.52367 31.223678,121.523657 31.223701)))",1,0,1505902058,1520235420,1520235420,0,POINT(121.52392322366 31.223709690804),null,浦电路77号,,2,2,-1,0,,1,1,2,1,121.52365,31.223655,null,null,2018-11-07 00:57:50,dw_etl,2018-11-07 00:57:50,dw_etl
9837,31011500713,,良友大厦,,,上海市,1,浦东新区,310115,陆家嘴,1000904,商城路618号,POINT(121.524868 31.236037),"MULTIPOLYGON(((121.524472 31.235782,121.525101 31.235882,121.524962 31.236376,121.524333 31.236299,121.524373 31.235929,121.524472 31.235782)))",1,1,1505902058,1537234987,0,0,POINT(121.52444495321 31.236028563124),POINT(121.524666 31.236048),商城路660号-4楼,,1163,0,-1,0,,1,1,2,0,121.524868,31.236037,121.524666,31.236048,2018-11-07 00:57:50,dw_etl,2018-11-07 00:57:50,dw_etl
10178,31011500754,,招远小区,,,上海市,1,浦东新区,310115,陆家嘴,1000904,招远路19弄,POINT(121.5215935 31.24219705),"MULTIPOLYGON(((121.522716 31.241826,121.52206 31.243042,121.520538 31.242625,121.520672 31.242332,121.520717 31.242274,121.520874 31.241799,121.52074 31.241765,121.520879 31.241359,121.520165 31.241101,121.520201 31.240889,121.522716 31.241826)))",1,1,1505902058,1537234988,0,0,POINT(121.52146491631 31.242305169794),POINT(121.521202 31.242013),,,1195,1026,-1,0,,1,1,2,1,121.5215935,31.24219705,121.521202,31.242013,2018-11-07 00:57:50,dw_etl,2018-11-07 00:57:50,dw_etl
10490,31011500800,,盛大金磐,,,上海市,1,浦东新区,310115,陆家嘴,1000904,东泰路200弄,POINT(121.512398 31.237614),"MULTIPOLYGON(((121.510947 31.238085,121.511153 31.237027,121.511432 31.236387,121.514136 31.236996,121.513624 31.238324,121.51092 31.238093,121.510947 31.238085)))",1,1,1505902058,1537234989,0,0,POINT(121.51113036237 31.237500470093),POINT(121.51248 31.237754),,,1199,1030,-1,0,,1,1,6,1,121.512398,31.237614,121.51248,31.237754,2018-11-07 00:57:50,dw_etl,2018-11-07 00:57:50,dw_etl
10542,31011500808,,震旦大厦,,,上海市,1,浦东新区,310115,陆家嘴,1000904,富城路99号,POINT(121.5060625 31.24018036),"MULTIPOLYGON(((121.506134 31.239733,121.505497 31.240524,121.506296 31.240887,121.506822 31.240107,121.506152 31.239736,121.506134 31.239733)))",1,1,1505902058,1537234989,0,0,POINT(121.50606250446 31.240180335163),POINT(121.506227 31.240308),,,1162,0,-1,0,,1,1,2,0,121.5060625,31.24018036,121.506227,31.240308,2018-11-07 00:57:50,dw_etl,2018-11-07 00:57:50,dw_etl
10569,31011500811,,环球金融中心,,,上海市,1,浦东新区,310115,陆家嘴,1000904,世纪大道100号,POINT(121.5136524 31.24154249),"MULTIPOLYGON(((121.51323 31.241616,121.515359 31.241014,121.515673 31.239015,121.513616 31.238514,121.513248 31.239996,121.513203 31.241609,121.51323 31.241616)))",1,1,1505902058,1537234989,0,0,POINT(121.51443399317 31.240164588847),null,,,1166,4,-1,0,,1,1,2,0,121.5136524,31.24154249,null,null,2018-11-07 00:57:50,dw_etl,2018-11-07 00:57:50,dw_etl
10571,31011500812,,东园一村,,,上海市,1,浦东新区,310115,陆家嘴,1000904,东园一村101-139号,POINT(121.5187815 31.23814613),"MULTIPOLYGON(((121.518212 31.238102,121.518401 31.23757,121.518424 31.236883,121.520288 31.237253,121.520907 31.237458,121.520544 31.238222,121.519874 31.237913,121.519322 31.237859,121.518913 31.237732,121.518698 31.238264,121.518212 31.238102)))",1,1,1505902058,1537234989,0,0,POINT(121.52045928755 31.238165248263),POINT(121.518755 31.238189),,,1199,1030,-1,0,,1,1,6,1,121.5187815,31.23814613,121.518755,31.238189,2018-11-07 00:57:50,dw_etl,2018-11-07 00:57:50,dw_etl
10725,31011500830,,乳山二村,,,上海市,1,浦东新区,310115,陆家嘴,1000904,乳山路86弄乳山路70号乳山路74号乳山路76号乳山路82号乳山路84号,POINT(121.5249715 31.23927782),"MULTIPOLYGON(((121.524922 31.239301,121.524993 31.239243,121.525007 31.239347,121.524922 31.239301)))",1,1,1505902058,1537234989,0,0,POINT(121.53008828181 31.24191885226),POINT(121.524736 31.239088),,,1195,1026,-1,0,,1,1,2,1,121.5249715,31.23927782,121.524736,31.239088,2018-11-07 00:57:50,dw_etl,2018-11-07 00:57:50,dw_etl
11236,31011500907,,昌邑小区,,,上海市,1,浦东新区,310115,陆家嘴,1000904,浦东大道307弄,POINT(121.522705 31.245186),"MULTIPOLYGON(((121.522691 31.246908,121.523418 31.24712,121.523841 31.245797,121.523001 31.245561,121.522924 31.245612,121.522839 31.24594,121.522691 31.246908)))",1,1,1505902058,1537234990,0,0,POINT(121.52325670882 31.246269981155),POINT(121.523238 31.246321),浦东大道252号,,1162,1026,-1,0,,1,1,2,1,121.522705,31.245186,121.523238,31.246321,2018-11-07 00:57:51,dw_etl,2018-11-07 00:57:51,dw_etl
11312,31011500914,,时代金融中心,,,上海市,1,浦东新区,310115,陆家嘴,1000904,银城中路68号,POINT(121.5133081 31.24694869),"MULTIPOLYGON(((121.512513 31.247091,121.51303 31.246424,121.513241 31.246412,121.513793 31.246717,121.513281 31.247504,121.512513 31.247091)))",1,1,1505902058,1537234991,0,0,POINT(121.5132145677 31.246371180863),POINT(121.51313 31.247015),银城中路68号,,1167,0,-1,0,,1,1,2,0,121.5133081,31.24694869,121.51313,31.247015,2018-11-07 00:57:51,dw_etl,2018-11-07 00:57:51,dw_etl
11357,31011500923,,天科苑,,,上海市,1,浦东新区,310115,陆家嘴,1000904,浦东南路1550弄,POINT(121.524164 31.22628),"MULTIPOLYGON(((121.523344 31.226264,121.5233468790205 31.226249711527913,121.523335 31.226248,121.523344 31.226264)),((121.5233468790205 31.226249711527913,121.524036 31.226349,121.524979 31.226603,121.525078 31.226163,121.523425 31.225862,121.5233468790205 31.226249711527913)))",1,1,1505902058,1537234991,0,0,POINT(121.52409407329 31.226512645212),null,浦东南路1550号,蔚蓝海岸天科苑,1195,1026,-1,0,,1,1,2,1,121.524164,31.22628,null,null,2018-11-07 00:57:51,dw_etl,2018-11-07 00:57:51,dw_etl
11371,31011500927,,船舶大厦,,中国船舶大厦(搜房),上海市,1,浦东新区,310115,陆家嘴,1000904,浦东大道1号,POINT(121.5165794 31.24561913),"MULTIPOLYGON(((121.516786 31.244538,121.517316 31.243782,121.51834 31.244168,121.517981 31.244893,121.516786 31.244538)))",1,1,1505902058,1537234991,0,0,POINT(121.51755111329 31.244465395937),null,浦东南路335号,,1163,0,-1,0,,1,1,2,0,121.5165794,31.24561913,null,null,2018-11-07 00:57:51,dw_etl,2018-11-07 00:57:51,dw_etl
11443,31011500940,,东明新村,,,上海市,1,浦东新区,310115,陆家嘴,1000904,浦电路62弄,POINT(121.5245904 31.223443),"MULTIPOLYGON(((121.523252 31.223334,121.523539 31.222485,121.524285 31.22274,121.524483 31.222416,121.524743 31.222477,121.524321 31.223659,121.523234 31.223396,121.523252 31.223311,121.523252 31.223334)))",1,1,1505902058,1537234991,0,0,POINT(121.52427800044 31.223907865606),POINT(121.523553 31.22306),浦东南路1700弄-1-3号,东建大楼,1195,1154,-1,0,,1,1,2,1,121.5245904,31.223443,121.523553,31.22306,2018-11-07 00:57:51,dw_etl,2018-11-07 00:57:51,dw_etl
11522,31011500951,,西霞路25号,,,上海市,1,浦东新区,310115,陆家嘴,1000904,栖霞路25号,POINT(121.52066 31.241152),"MULTIPOLYGON(((121.52062 31.24119,121.520682 31.241102,121.520691 31.241218,121.52062 31.24119)))",1,1,1505902058,1537234991,0,0,POINT(121.19524925076 31.106737140528),null,栖霞路17-4,招远小区,10,1026,-1,0,,1,1,2,1,121.52066,31.241152,null,null,2018-11-07 00:57:51,dw_etl,2018-11-07 00:57:51,dw_etl
11668,31011500974,,谢家宅小区,,,上海市,1,浦东新区,310115,陆家嘴,1000904,浦电路48弄浦电路44号,POINT(121.524367 31.223889),"MULTIPOLYGON(((121.522999 31.224205,121.523188 31.223449,121.525407 31.22402,121.525398 31.224325,121.525362 31.224514,121.524895 31.224402,121.52476 31.224634,121.524666 31.224634,121.524621 31.224962,121.524019 31.224865,121.523862 31.224808,121.523889 31.225055,121.523803 31.22524,121.523413 31.225086,121.523525 31.224788,121.523448 31.224754,121.523579 31.224387,121.52308 31.224232,121.522999 31.224205)))",1,1,1505902058,1537234991,0,0,POINT(121.52369407311 31.223646236398),POINT(121.524205 31.224306),浦电路56号,谢家宅小区,1195,1026,-1,0,,1,1,2,1,121.524367,31.223889,121.524205,31.224306,2018-11-07 00:57:51,dw_etl,2018-11-07 00:57:51,dw_etl
11828,31011500998,,爱建大楼,,,上海市,1,浦东新区,310115,陆家嘴,1000904,浦东南路1466弄,POINT(121.524303 31.227845),"MULTIPOLYGON(((121.524065 31.227885,121.524438 31.227986,121.524528 31.227739,121.524213 31.227623,121.524074 31.22787,121.524065 31.227885)))",1,1,1505902058,1537234992,0,0,POINT(121.52310500029 31.227701866106),POINT(121.524286 31.227771),浦东南路1466弄-1号,爱建大楼,1195,1026,-1,0,,1,1,2,1,121.524303,31.227845,121.524286,31.227771,2018-11-07 00:57:51,dw_etl,2018-11-07 00:57:51,dw_etl
11965,31011501016,,华诚大厦,,,上海市,1,浦东新区,310115,陆家嘴,1000904,张杨路601号,POINT(121.524867 31.23499781),"MULTIPOLYGON(((121.525235 31.234515,121.525428 31.234071,121.525887 31.234226,121.525689 31.23467,121.525235 31.234515)))",1,1,1505902058,1537234992,0,0,POINT(121.52548069857 31.234224837293),POINT(121.525558 31.234359),崂山西路588号,,1167,4,-1,0,,1,1,2,0,121.524867,31.23499781,121.525558,31.234359,2018-11-07 00:57:51,dw_etl,2018-11-07 00:57:51,dw_etl
12078,31011501034,,浦东大道435号,,浦东大道435-437号(链家),上海市,1,浦东新区,310115,陆家嘴,1000904,浦东大道435号,POINT(121.525098 31.246376),"MULTIPOLYGON(((121.525091 31.246414,121.525051 31.246357,121.525141 31.246357,121.525118 31.246384,121.525091 31.246414)))",1,1,1505902058,1537234992,0,0,POINT(121.52509643042 31.246371982637),null,,,10,1026,-1,0,,1,1,2,1,121.525098,31.246376,null,null,2018-11-07 00:57:51,dw_etl,2018-11-07 00:57:51,dw_etl
12147,31011501049,,永华大厦,,,上海市,1,浦东新区,310115,陆家嘴,1000904,浦东大道138号,POINT(121.5201146 31.24515561),"MULTIPOLYGON(((121.520429 31.244388,121.520613 31.24404,121.521215 31.244218,121.521017 31.244561,121.520429 31.244388)))",1,1,1505902058,1537234992,0,0,POINT(121.52073658458 31.244345366583),POINT(121.520817 31.244214),,,1163,0,-1,0,,1,1,2,0,121.5201146,31.24515561,121.520817,31.244214,2018-11-07 00:57:51,dw_etl,2018-11-07 00:57:51,dw_etl
12202,31011501060,,上海证券大厦,,,上海市,1,浦东新区,310115,陆家嘴,1000904,浦东南路528号,POINT(121.517911 31.242073),"MULTIPOLYGON(((121.517239 31.242324,121.517388 31.241714,121.517855 31.241324,121.517931 31.24132,121.51807 31.241363,121.518434 31.241571,121.517841 31.242602,121.517307 31.242362,121.517239 31.242324)))",1,1,1505902058,1537234992,0,0,POINT(121.51755711846 31.241698465287),POINT(121.51826 31.241769),,,1166,4,-1,0,,1,1,2,0,121.517911,31.242073,121.51826,31.241769,2018-11-07 00:57:51,dw_etl,2018-11-07 00:57:51,dw_etl
12274,31011501078,,潍坊西路100弄,,陈家宅小区(链家),上海市,1,浦东新区,310115,陆家嘴,1000904,潍坊西路100弄,POINT(121.522828 31.227816),POINT(-1 -1),1,1,1505902058,1537234993,0,0,POINT(121.52322555289 31.228190907861),null,,,1195,128,-1,0,,10,1,2,1,121.522828,31.227816,null,null,2018-11-07 00:57:51,dw_etl,2018-11-07 00:57:51,dw_etl
12276,31011501079,,东方路18号,,,上海市,1,浦东新区,310115,陆家嘴,1000904,东方路18号,POINT(121.5243605 31.2495361),POINT(-1 -1),1,1,1505902058,1537234993,0,0,POINT(121.52436048734 31.249536104235),null,,,10,0,-1,0,,5,1,2,0,121.5243605,31.2495361,null,null,2018-11-07 00:57:51,dw_etl,2018-11-07 00:57:51,dw_etl
12366,31011501090,,国家开发银行大厦,,,上海市,1,浦东新区,310115,陆家嘴,1000904,浦东南路500号,POINT(121.5163626 31.24336341),"MULTIPOLYGON(((121.516761 31.242999,121.516446 31.242806,121.516815 31.24232,121.51708 31.242301,121.517677 31.242648,121.517421 31.242883,121.51725 31.242976,121.517084 31.243015,121.516756 31.243003,121.516761 31.243003,121.516761 31.242999)))",1,1,1505902058,1537234993,0,0,POINT(121.51711460778 31.242962181987),POINT(121.517062 31.242737),,,1162,0,-1,0,,1,1,2,0,121.5163626,31.24336341,121.517062,31.242737,2018-11-07 00:57:51,dw_etl,2018-11-07 00:57:51,dw_etl
12463,31011501103,,崂山路151号,,崂山路149-159号(链家),上海市,1,浦东新区,310115,陆家嘴,1000904,崂山路151号,POINT(121.523493 31.243669),"MULTIPOLYGON(((121.523495 31.243707,121.52345 31.24365,121.52359 31.24365,121.523531 31.243696,121.523495 31.243707)))",1,1,1505902058,1537234993,0,0,POINT(121.5233973673 31.243742341284),null,,,10,1026,-1,0,,1,1,2,1,121.523493,31.243669,null,null,2018-11-07 00:57:51,dw_etl,2018-11-07 00:57:51,dw_etl
12598,31011501124,,荣成路50弄,,荣成路50弄小区(搜房),上海市,1,浦东新区,310115,陆家嘴,1000904,荣成路50弄,POINT(121.5239379 31.24663811),"MULTIPOLYGON(((121.523415 31.247147,121.523819 31.245677,121.52438 31.245862,121.523918 31.24729,121.523468 31.247197,121.523415 31.247147)))",1,1,1505902058,1537234993,0,0,POINT(121.5240436478 31.246354724967),null,,,1163,1026,-1,0,,1,1,2,1,121.5239379,31.24663811,null,null,2018-11-07 00:57:51,dw_etl,2018-11-07 00:57:51,dw_etl
13157,31011501210,,崂山西路301弄,,,上海市,1,浦东新区,310115,陆家嘴,1000904,崂山西路301弄,POINT(121.525188 31.242107),"MULTIPOLYGON(((121.525195 31.242145,121.525145 31.242095,121.52524 31.242107,121.525226 31.242161,121.525195 31.242145)))",1,0,1505902058,1530868906,1530868906,0,null,null,崂山西路301弄,崂山三四村,2,2,-1,0,,1,1,2,1,121.525188,31.242107,null,null,2018-11-07 00:57:51,dw_etl,2018-11-07 00:57:51,dw_etl
13258,31011501224,,东昌路509号,,,上海市,1,浦东新区,310115,陆家嘴,1000904,东昌路509号,POINT(121.517893 31.238151),POINT(-1 -1),1,0,1505902058,1520233772,1520233772,0,POINT(121.51781719498 31.238181387811),null,东昌路511号,东昌小区,2,2,-1,0,,5,1,2,1,121.517893,31.238151,null,null,2018-11-07 00:57:51,dw_etl,2018-11-07 00:57:51,dw_etl
13295,31011501233,,保利广场,,,上海市,1,浦东新区,310115,陆家嘴,1000904,东方路18号东方路2号,POINT(121.5250575 31.24979693),"MULTIPOLYGON(((121.523207 31.249751,121.523279 31.248531,121.524815 31.248786,121.524941 31.248778,121.525129 31.248793,121.525147 31.249133,121.525453 31.249388,121.525983 31.249426,121.525929 31.250052,121.523207 31.249751)))",1,1,1505902058,1537234995,0,0,POINT(121.52514898129 31.249651264046),POINT(121.524414 31.249339),东方路2号,,1166,6,-1,0,,1,1,2,0,121.5250575,31.24979693,121.524414,31.249339,2018-11-07 00:57:51,dw_etl,2018-11-07 00:57:51,dw_etl
13423,31011501256,,财富海景花园,,,上海市,1,浦东新区,310115,陆家嘴,1000904,浦明路258弄,POINT(121.515428 31.231823),"MULTIPOLYGON(((121.513616 31.232811,121.513571 31.232711,121.513984 31.232209,121.514523 31.231506,121.51508 31.230642,121.515394 31.230233,121.516607 31.230788,121.516751 31.230487,121.517451 31.230773,121.517371 31.231043,121.517245 31.231267,121.516993 31.231553,121.516652 31.231877,121.516149 31.232147,121.515646 31.232348,121.514981 31.232641,121.51437 31.23285,121.514065 31.233019,121.513885 31.232973,121.513705 31.232888,121.513616 31.232811)))",1,1,1505902058,1537234995,0,0,POINT(121.51523322726 31.231696796783),POINT(121.515506 31.231579),陆家嘴浦明路268号,财富海景花园,1199,1030,-1,0,,1,1,6,1,121.515428,31.231823,121.515506,31.231579,2018-11-07 00:57:51,dw_etl,2018-11-07 00:57:51,dw_etl
13498,31011501265,,崂山一村,,,上海市,1,浦东新区,310115,陆家嘴,1000904,崂山一村,POINT(121.5251518 31.2427583),"MULTIPOLYGON(((121.525004 31.244608,121.52522 31.244014,121.526352 31.244369,121.525947 31.244978,121.525004 31.244608)))",1,1,1505902058,1537234995,0,0,POINT(121.52544632042 31.24444764355),POINT(121.525458 31.244458),崂山路224号,,1163,1026,-1,0,,1,1,2,1,121.5251518,31.2427583,121.525458,31.244458,2018-11-07 00:57:51,dw_etl,2018-11-07 00:57:51,dw_etl
13591,31011501281,,上海湾广场,,,上海市,1,浦东新区,310115,陆家嘴,1000904,浦东南路1138号,POINT(121.522004 31.23323276),"MULTIPOLYGON(((121.51979 31.232337,121.519987 31.231982,121.522601 31.233009,121.522682 31.233372,121.522565 31.23358,121.519781 31.232492,121.51979 31.232337)))",1,1,1505902058,1537234995,0,0,POINT(121.5202627383 31.232260684093),null,浦东南路1138号,,1162,2,-1,0,,1,1,2,0,121.522004,31.23323276,null,null,2018-11-07 00:57:51,dw_etl,2018-11-07 00:57:51,dw_etl
13627,31011501288,,菊园,,,上海市,1,浦东新区,310115,陆家嘴,1000904,浦城路366弄,POINT(121.519739 31.233867),"MULTIPOLYGON(((121.518734 31.234891,121.518644 31.234613,121.519668 31.232622,121.521114 31.2331,121.520638 31.234366,121.520602 31.234428,121.521321 31.234636,121.521006 31.235455,121.518707 31.234899,121.518734 31.234891)))",1,1,1505902058,1537234995,0,0,POINT(121.52007057009 31.233767372123),POINT(121.520023 31.233981),浦城路366弄-1-24号,菊园,1195,1026,-1,0,,1,1,2,1,121.519739,31.233867,121.520023,31.233981,2018-11-07 00:57:51,dw_etl,2018-11-07 00:57:51,dw_etl
13707,31011501302,,兰园小区,,,上海市,1,浦东新区,310115,陆家嘴,1000904,浦城路549号,POINT(121.520063 31.230644),"MULTIPOLYGON(((121.519367 31.230051,121.519974 31.230302,121.519781 31.230545,121.519493 31.231097,121.519399 31.23129,121.520005 31.231564,121.520715 31.230097,121.519983 31.229804,121.519852 31.229796,121.519583 31.229669,121.519403 31.230001,121.519367 31.230051)))",1,1,1505902058,1537234996,0,0,POINT(121.51955162259 31.230680891856),POINT(121.520015 31.230549),浦城路377号,江临天下,1195,1026,-1,0,,1,1,2,1,121.520063,31.230644,121.520015,31.230549,2018-11-07 00:57:51,dw_etl,2018-11-07 00:57:51,dw_etl
13719,31011501308,,金茂大厦,,,上海市,1,浦东新区,310115,陆家嘴,1000904,世纪大道88号,POINT(121.5117148 31.24185052),"MULTIPOLYGON(((121.5114 31.242028,121.511391 31.240199,121.513161 31.239982,121.512963 31.241572,121.511418 31.242036,121.5114 31.242028)))",1,1,1505902058,1537234996,0,0,POINT(121.51177321225 31.240453270892),POINT(121.511578 31.240469),世纪大道88号2505室,,1163,0,-1,0,,1,1,2,0,121.5117148,31.24185052,121.511578,31.240469,2018-11-07 00:57:51,dw_etl,2018-11-07 00:57:51,dw_etl
14433,31011501408,,九庐,,,上海市,1,浦东新区,310115,陆家嘴,1000904,银城路即墨路,POINT(121.517526 31.247921),POINT(-1 -1),1,1,1505902058,1537234997,0,0,POINT(121.51775391025 31.247758640213),null,,,10,1026,-1,0,,9,1,2,1,121.517526,31.247921,null,null,2018-11-07 00:57:51,dw_etl,2018-11-07 00:57:51,dw_etl
14767,31011501460,,汤臣金融大厦,,,上海市,1,浦东新区,310115,陆家嘴,1000904,东方路710号,POINT(121.531049 31.234798),"MULTIPOLYGON(((121.53024 31.235284,121.530766 31.234018,121.531363 31.234207,121.531857 31.234385,121.531511 31.235214,121.531197 31.235384,121.530829 31.235458,121.530294 31.235307,121.53024 31.235284)))",1,1,1505902058,1537234998,0,0,POINT(121.53070754487 31.234845086799),POINT(121.531033 31.23478),,,1199,4,-1,0,,1,1,2,0,121.531049,31.234798,121.531033,31.23478,2018-11-07 00:57:51,dw_etl,2018-11-07 00:57:51,dw_etl
15195,31011501524,,良丰大厦,,,上海市,1,浦东新区,310115,陆家嘴,1000904,东方路8号,POINT(121.5254803 31.24899891),"MULTIPOLYGON(((121.525197 31.249242,121.525233 31.248501,121.525633 31.248563,121.525678 31.249288,121.525184 31.249265,121.525206 31.249261,121.525197 31.249242)))",1,1,1505902058,1537234999,0,0,POINT(121.52552636124 31.248654571708),POINT(121.525499 31.248901),钱仓路1号,,1194,0,-1,0,,1,1,2,0,121.5254803,31.24899891,121.525499,31.248901,2018-11-07 00:57:51,dw_etl,2018-11-07 00:57:51,dw_etl
15241,31011501535,,浦东南路1500号,,,上海市,1,浦东新区,310115,陆家嘴,1000904,浦东南路1540号,POINT(121.524452 31.227247),"MULTIPOLYGON(((121.524531 31.227645,121.524082 31.227448,121.524383 31.226796,121.524747 31.226893,121.524558 31.227591,121.524531 31.227645)))",1,1,1505902058,1537234999,0,0,POINT(121.52447588098 31.227281592989),null,浦东南路1542号,,10,0,-1,0,,1,1,2,0,121.524452,31.227247,null,null,2018-11-07 00:57:51,dw_etl,2018-11-07 00:57:51,dw_etl
15385,31011501556,,中融大厦,,,上海市,1,浦东新区,310115,陆家嘴,1000904,浦东南路1088号,POINT(121.5222332 31.23394597),"MULTIPOLYGON(((121.521049 31.234197,121.521323 31.23349,121.522401 31.233849,121.522172 31.234502,121.521126 31.234216,121.521049 31.234197)))",1,1,1505902058,1537234999,0,0,POINT(121.52216348719 31.233954995116),POINT(121.521762 31.234036),浦东南路1078号,,14,4,-1,0,,1,1,2,0,121.5222332,31.23394597,121.521762,31.234036,2018-11-07 00:57:51,dw_etl,2018-11-07 00:57:51,dw_etl
15451,31011501568,,浦东南路1078号,,,上海市,1,浦东新区,310115,陆家嘴,1000904,浦东南路1078号,POINT(121.5217749 31.23432964),POINT(-1 -1),1,1,1505902058,1537234999,0,0,POINT(121.52208379042 31.234143889871),null,浦东南路1078号-4层,,10,0,-1,0,,5,1,2,0,121.5217749,31.23432964,null,null,2018-11-07 00:57:51,dw_etl,2018-11-07 00:57:51,dw_etl
15555,31011501582,,东海宾馆,,,上海市,1,浦东新区,310115,陆家嘴,1000904,浦东大道279号,POINT(121.522741 31.245828),"MULTIPOLYGON(((121.522547 31.246063,121.522771 31.246106,121.522852 31.246079,121.522933 31.24555,121.522722 31.245508,121.522569 31.246006,121.522547 31.246063)))",1,1,1505902058,1537234999,0,0,POINT(121.5228386024 31.245623978863),POINT(121.522918 31.245625),荣成路18号-临,荣成路50弄3号,10,2,-1,0,,1,1,2,0,121.522741,31.245828,121.522918,31.245625,2018-11-07 00:57:51,dw_etl,2018-11-07 00:57:51,dw_etl
15646,31011501599,,浦东大道437号,,,上海市,1,浦东新区,310115,陆家嘴,1000904,浦东大道437号,POINT(121.525279 31.246411),"MULTIPOLYGON(((121.525268 31.246457,121.525218 31.246403,121.525335 31.246388,121.525281 31.246442,121.525268 31.246457)))",1,1,1505902058,1537235000,0,0,POINT(121.52527564237 31.246408875964),null,浦东大道437号,荣成大厦,10,1026,-1,0,,1,1,2,1,121.525279,31.246411,null,null,2018-11-07 00:57:51,dw_etl,2018-11-07 00:57:51,dw_etl
15708,31011501605,,浦电路50号,,,上海市,1,浦东新区,310115,陆家嘴,1000904,浦电路50号,POINT(121.524105 31.223802),"MULTIPOLYGON(((121.524103 31.223848,121.524058 31.223802,121.524166 31.223786,121.524134 31.223848,121.524103 31.223848)))",1,0,1505902058,1528080721,1528080721,0,POINT(121.52410500027 31.223801865535),null,浦电路50号,谢家宅小区,2,2,-1,0,,1,1,2,1,121.524105,31.223802,null,null,2018-11-07 00:57:51,dw_etl,2018-11-07 00:57:51,dw_etl
15856,31011501621,,崂山新村,,,上海市,1,浦东新区,310115,陆家嘴,1000904,崂山新村,POINT(121.525004 31.245166),"MULTIPOLYGON(((121.526204 31.244856,121.526824 31.245049,121.527336 31.243574,121.525198 31.242818,121.524955 31.24332,121.525953 31.243821,121.525827 31.244192,121.526132 31.244331,121.525881 31.244802,121.526204 31.244856)))",1,1,1505902058,1537235000,0,0,POINT(121.52547883279 31.244444356348),POINT(121.525622 31.244503),浦东大道139号,崂山新村,1195,1154,-1,0,,1,1,2,1,121.525004,31.245166,121.525622,31.244503,2018-11-07 00:57:51,dw_etl,2018-11-07 00:57:51,dw_etl
16564,31011501740,,金融信息大厦,,,上海市,1,浦东新区,310115,陆家嘴,1000904,东园路18号,POINT(121.510903 31.24509553),"MULTIPOLYGON(((121.50744 31.247816,121.508001 31.247909,121.508397 31.247689,121.508621 31.247372,121.508208 31.247091,121.508001 31.247195,121.507539 31.247666,121.507436 31.247816,121.50744 31.247816)))",1,1,1505902058,1537235002,0,0,POINT(121.50819163584 31.247533913625),null,,,1162,0,-1,0,,1,1,2,0,121.510903,31.24509553,null,null,2018-11-07 00:57:51,dw_etl,2018-11-07 00:57:51,dw_etl
16774,31011501769,,乳山四村,,,上海市,1,浦东新区,310115,陆家嘴,1000904,乳山路114弄1-25号，东方路402弄1-16号，崂山路310弄1-4号,POINT(121.5280611 31.24042292),"MULTIPOLYGON(((121.527486 31.240817,121.528057 31.239736,121.529126 31.240126,121.528596 31.241272,121.528173 31.241091,121.527486 31.240817)))",1,1,1505902058,1534571339,0,0,POINT(121.52806038945 31.240421623973),POINT(121.527908 31.240065),,,1195,1154,-1,0,,1,1,2,1,121.5280611,31.24042292,121.527908,31.240065,2018-11-07 00:57:51,dw_etl,2018-11-07 00:57:51,dw_etl
16811,31011501776,,中银大厦,,,上海市,1,浦东新区,310115,陆家嘴,1000904,银城中路200号,POINT(121.5098971 31.24346106),"MULTIPOLYGON(((121.509789 31.244808,121.509336 31.244121,121.51049 31.243677,121.510697 31.244275,121.509789 31.244808)))",1,1,1505902058,1537235002,0,0,POINT(121.51030939288 31.244266657391),POINT(121.509872 31.244211),,,1166,4,-1,0,,1,1,2,0,121.5098971,31.24346106,121.509872,31.244211,2018-11-07 00:57:51,dw_etl,2018-11-07 00:57:51,dw_etl
16947,31011501801,,崂山路157号,,,上海市,1,浦东新区,310115,陆家嘴,1000904,崂山路157号崂山东路157号,POINT(121.52361000429 31.2438212137),POINT(-1 -1),1,1,1505902058,1537235002,0,0,POINT(121.52361000429 31.2438212137),null,,,10,1026,-1,0,,3,1,2,1,121.52361000429,31.2438212137,null,null,2018-11-07 00:57:51,dw_etl,2018-11-07 00:57:51,dw_etl
16965,31011501806,,东方路258号,,,上海市,1,浦东新区,310115,陆家嘴,1000904,东方路258号,POINT(121.52766 31.242662),"MULTIPOLYGON(((121.527638 31.242697,121.527687 31.242619,121.527696 31.24272,121.527638 31.242697)))",1,0,1505902058,1520233062,1520233062,0,POINT(121.52760002674 31.242627622979),null,,,2,2,-1,0,,1,1,2,1,121.52766,31.242662,null,null,2018-11-07 00:57:51,dw_etl,2018-11-07 00:57:51,dw_etl
17200,31011501846,,乳山路72号,,,上海市,1,浦东新区,310115,陆家嘴,1000904,乳山路72号,POINT(121.523904 31.239381),"MULTIPOLYGON(((121.523823 31.239408,121.523949 31.239323,121.523949 31.239435,121.523823 31.239408)))",1,0,1505902058,1520239971,1520239971,0,POINT(121.52405215027 31.239441336068),null,乳山路72-1号,乳山二村,2,2,-1,0,,1,1,2,1,121.523904,31.239381,null,null,2018-11-07 00:57:51,dw_etl,2018-11-07 00:57:51,dw_etl
17325,31011501865,,滨江大楼,,,上海市,1,浦东新区,310115,陆家嘴,1000904,浦电路29弄,POINT(121.5218271 31.22226537),"MULTIPOLYGON(((121.52092189246046 31.222825390731888,121.52092 31.222825,121.52092 31.222833,121.52092189246046 31.222825390731888)),((121.52092189246046 31.222825390731888,121.522528 31.223157,121.522564 31.222709,121.521621 31.22247,121.521638 31.222339,121.521064 31.222254,121.52092189246046 31.222825390731888)))",1,1,1505902058,1537235003,0,0,POINT(121.52194973359 31.222370938403),POINT(121.52159 31.222683),陆家嘴浦电路29号,众盛公寓,1195,1026,-1,0,,1,1,2,1,121.5218271,31.22226537,121.52159,31.222683,2018-11-07 00:57:51,dw_etl,2018-11-07 00:57:51,dw_etl
17558,31011501895,,乳山路76号,,,上海市,1,浦东新区,310115,陆家嘴,1000904,乳山路76号,POINT(121.524288 31.239565),"MULTIPOLYGON(((121.524252 31.239584,121.524324 31.239526,121.524324 31.239611,121.524252 31.239584)))",1,0,1505902058,1520239971,1520239971,0,POINT(121.52430513825 31.239546323156),null,乳山路76-2号-临,乳山二村,2,2,-1,0,,1,1,2,1,121.524288,31.239565,null,null,2018-11-07 00:57:51,dw_etl,2018-11-07 00:57:51,dw_etl
17763,31011501930,,滨江凯旋门,,滨江凯旋门别墅(搜房),上海市,1,浦东新区,310115,陆家嘴,1000904,浦明路688弄60-66号,POINT(121.51849375197 31.227688377279),"MULTIPOLYGON(((121.51742 31.227182,121.517438 31.226719,121.517798 31.225932,121.519011 31.226433,121.518849 31.226704,121.518759 31.227198,121.518525 31.227977,121.518247 31.22902,121.518022 31.22956,121.517492 31.230409,121.51707 31.230247,121.517331 31.229799,121.516423 31.22946,121.51619 31.229846,121.515857 31.229676,121.517349 31.227298,121.51742 31.227182)))",1,1,1505902058,1537235004,0,0,POINT(121.51695427911 31.209307756679),POINT(121.517625 31.228188),浦明路,,5295,1030,-1,0,,1,1,6,1,121.51849375197,31.227688377279,121.517625,31.228188,2018-11-07 00:57:51,dw_etl,2018-11-07 00:57:51,dw_etl
17842,31011501940,,中国平安金融大厦,,,上海市,1,浦东新区,310115,陆家嘴,1000904,陆家嘴环路1333号,POINT(121.5083205 31.24493123),"MULTIPOLYGON(((121.509722 31.246251,121.509102 31.24595,121.508491 31.245579,121.507889 31.244954,121.507764 31.244646,121.509237 31.244121,121.509713 31.244931,121.509452 31.24514,121.510216 31.245711,121.509722 31.246251)))",1,1,1505902058,1537235004,0,0,POINT(121.50832046543 31.244931225692),POINT(121.50906 31.245283),陆家嘴环路1410-、1412号,,1163,0,-1,0,,1,1,2,0,121.5083205,31.24493123,121.50906,31.245283,2018-11-07 00:57:51,dw_etl,2018-11-07 00:57:51,dw_etl
17848,31011501941,,内外联大厦,,,上海市,1,浦东新区,310115,陆家嘴,1000904,商城路518号,POINT(121.5236919 31.23641755),"MULTIPOLYGON(((121.523193 31.236039,121.524078 31.23632,121.524177 31.236027,121.524204 31.23563,121.52393 31.235576,121.523732 31.235433,121.523517 31.235595,121.523256 31.235938,121.523193 31.236039)))",1,1,1505902058,1537235004,0,0,POINT(121.52390662477 31.235968564203),POINT(121.523693 31.235992),商城路520号,,1163,0,-1,0,,1,1,2,0,121.5236919,31.23641755,121.523693,31.235992,2018-11-07 00:57:51,dw_etl,2018-11-07 00:57:51,dw_etl
17995,31011501961,,陕西北路204号,,,上海市,1,浦东新区,310115,陆家嘴,1000904,陕西北路204号,POINT(121.506071 31.244596),POINT(-1 -1),1,1,1505902058,1537235005,0,0,POINT(121.46185429242 31.233266979645),null,世纪大道1号,东方明珠,10,2,-1,0,,9,1,2,1,121.506071,31.244596,null,null,2018-11-07 00:57:51,dw_etl,2018-11-07 00:57:51,dw_etl
18193,31011501989,,滨康大楼,,,上海市,1,浦东新区,310115,陆家嘴,1000904,浦城路890号,POINT(121.5231705 31.22436473),"MULTIPOLYGON(((121.522964 31.224565,121.523485 31.224762,121.523557 31.224345,121.523058 31.224222,121.522959 31.224569,121.522964 31.224565)))",1,1,1505902058,1537235005,0,0,null,POINT(121.523296 31.224475),,,1195,1026,-1,0,,1,1,2,1,121.5231705,31.22436473,121.523296,31.224475,2018-11-07 00:57:51,dw_etl,2018-11-07 00:57:51,dw_etl
18230,31011501993,,东方路10号,,,上海市,1,浦东新区,310115,陆家嘴,1000904,东方路10号,POINT(121.5235241 31.24904353),POINT(-1 -1),1,1,1505902058,1537235005,0,0,POINT(121.52352405622 31.249043534236),null,,,10,0,-1,0,,8,1,2,0,121.5235241,31.24904353,null,null,2018-11-07 00:57:51,dw_etl,2018-11-07 00:57:51,dw_etl
18984,31011502106,,未来资产大厦,,,上海市,1,浦东新区,310115,陆家嘴,1000904,陆家嘴环路166号,POINT(121.506396 31.24167367),"MULTIPOLYGON(((121.506459 31.24138,121.506818 31.241612,121.507276 31.241704,121.507231 31.241303,121.507267 31.241017,121.50751 31.240485,121.506953 31.240137,121.506683 31.24033,121.50645 31.240701,121.506216 31.241071,121.506135 31.241241,121.506441 31.241388,121.506459 31.241388,121.506459 31.24138)))",1,1,1505902058,1537235007,0,0,POINT(121.50720223676 31.241130315172),POINT(121.506893 31.240885),,,1162,0,-1,0,,1,1,2,0,121.506396,31.24167367,121.506893,31.240885,2018-11-07 00:57:51,dw_etl,2018-11-07 00:57:51,dw_etl
19127,31011502137,,上船大楼,,,上海市,1,浦东新区,310115,陆家嘴,1000904,即墨路95-99号,POINT(121.5194055 31.24499781),"MULTIPOLYGON(((121.519383 31.244948,121.519517 31.244666,121.519832 31.244751,121.519715 31.245067,121.519383 31.244948)))",1,1,1505902058,1537235007,0,0,POINT(121.51947032505 31.245009534821),POINT(121.519646 31.244837),即墨路99号,上船大楼,1195,1026,-1,0,,1,1,2,1,121.5194055,31.24499781,121.519646,31.244837,2018-11-07 00:57:51,dw_etl,2018-11-07 00:57:51,dw_etl
19187,31011502143,,崂山二村,,,上海市,1,浦东新区,310115,陆家嘴,1000904,崂山二村1-45号,POINT(121.526802 31.24271833),"MULTIPOLYGON(((121.52801 31.242459,121.52775 31.242367,121.52784 31.242197,121.527615 31.242143,121.527732 31.241873,121.52819 31.242058,121.528513 31.241309,121.527444 31.240885,121.527166 31.241579,121.526654 31.241425,121.52669 31.241301,121.526052 31.241093,121.525208 31.242737,121.527471 31.243617,121.52801 31.242459)))",1,1,1505902058,1537235007,0,0,POINT(121.52789869446 31.241199903503),POINT(121.52691 31.242201),栖霞路116-1号,崂山二村,1195,1026,-1,0,,1,1,2,1,121.526802,31.24271833,121.52691,31.242201,2018-11-07 00:57:51,dw_etl,2018-11-07 00:57:51,dw_etl
19444,31011502183,,东昌新村,,,上海市,1,浦东新区,310115,陆家嘴,1000904,东昌新村东宁路348号东宁路350号东宁路360号,POINT(121.51825 31.23831918),"MULTIPOLYGON(((121.519211 31.238612,121.518847 31.239384,121.518106 31.239863,121.517019 31.239396,121.517199 31.23894,121.51684 31.238813,121.516907 31.238485,121.516615 31.23833,121.516903 31.237752,121.519211 31.238612)))",1,1,1505902058,1537235008,0,0,POINT(121.51741996069 31.238399286479),POINT(121.517673 31.238491),东昌路515号,东昌小区,1195,1026,-1,0,,1,1,2,1,121.51825,31.23831918,121.517673,31.238491,2018-11-07 00:57:51,dw_etl,2018-11-07 00:57:51,dw_etl
19633,31011502211,,惠好天下,,,上海市,1,浦东新区,310115,陆家嘴,1000904,浦明路888号,POINT(121.5201726 31.22417452),POINT(-1 -1),1,0,1505902058,1536198019,1536198019,0,POINT(121.51986743049 31.223950711765),null,浦明路,,1026,0,-1,0,,10,1,2,1,121.5201726,31.22417452,null,null,2018-11-07 00:57:51,dw_etl,2018-11-07 00:57:51,dw_etl
19670,31011502218,,文华荟,,,上海市,1,浦东新区,310115,陆家嘴,1000904,银城路东城路,POINT(121.5162192 31.24525389),"MULTIPOLYGON(((121.51617 31.245281,121.516268 31.2452,121.516268 31.245304,121.51617 31.245281)))",1,0,1505902058,1518429307,1518429307,0,POINT(121.51631879983 31.245315898795),null,浦东南路306号,,2,0,-1,0,,1,1,0,1,121.5162192,31.24525389,null,null,2018-11-07 00:57:51,dw_etl,2018-11-07 00:57:51,dw_etl
19717,31011502226,江临天下-菊园,江临天下,二期,,上海市,1,浦东新区,310115,陆家嘴,1000904,浦明路233弄,POINT(121.518117 31.232224),"MULTIPOLYGON(((121.51661 31.232183,121.519063 31.233395,121.519844 31.231898,121.517688 31.230971,121.516628 31.232168,121.516628 31.232183,121.51661 31.232183)))",1,1,1505902058,1537235008,0,0,POINT(121.51804635181 31.2320137899),POINT(121.518233 31.232157),福康北路90号,江临天下,1199,1030,-1,0,,1,1,6,1,121.518117,31.232224,121.518233,31.232157,2018-11-07 00:57:51,dw_etl,2018-11-07 00:57:51,dw_etl
19742,31011502231,,崂山东路310弄,,,上海市,1,浦东新区,310115,陆家嘴,1000904,崂山路310弄,POINT(121.526903 31.239881),"MULTIPOLYGON(((121.526741 31.239823,121.526961 31.239356,121.527496 31.239564,121.527262 31.239997,121.526741 31.239823)))",1,0,1505902058,1526972041,1526972041,0,POINT(121.52704383999 31.2393404732),null,崂山路300号,乳山四村,1026,1026,-1,0,,1,1,2,1,121.526903,31.239881,null,null,2018-11-07 00:57:51,dw_etl,2018-11-07 00:57:51,dw_etl
19931,31011502253,,东园二村,,,上海市,1,浦东新区,310115,陆家嘴,1000904,东园二村,POINT(121.5180057 31.23760155),"MULTIPOLYGON(((121.51689 31.237637,121.518215 31.238096,121.518359 31.237583,121.518404 31.237027,121.518395 31.236857,121.517465 31.236637,121.51689 31.237637)))",1,1,1505902058,1537235009,0,0,POINT(121.51747817987 31.237527858888),POINT(121.517438 31.236816),东昌路460号,东园一村,1195,1026,-1,0,,1,1,2,1,121.5180057,31.23760155,121.517438,31.236816,2018-11-07 00:57:51,dw_etl,2018-11-07 00:57:51,dw_etl
20177,31011502295,,南泉北路101弄,,南泉北路101弄(链家),上海市,1,浦东新区,310115,陆家嘴,1000904,南泉北路101弄6号,POINT(121.521848 31.243705),"MULTIPOLYGON(((121.521075 31.244654,121.521794 31.243006,121.522064 31.243107,121.52192 31.243361,121.522311 31.243554,121.522311 31.243763,121.521695 31.24489,121.521075 31.244654)))",1,1,1505902058,1539073082,0,0,POINT(121.52174862545 31.243143914506),POINT(121.521817 31.243566),,,10,128,-1,0,,1,1,2,1,121.521848,31.243705,121.521817,31.243566,2018-11-07 00:57:51,dw_etl,2018-11-07 00:57:51,dw_etl
20245,31011502309,,浦东大道417号,,浦东大道409-431号(链家),上海市,1,浦东新区,310115,陆家嘴,1000904,浦东大道417号,POINT(121.524763 31.246276),"MULTIPOLYGON(((121.524687 31.246307,121.524705 31.246203,121.524907 31.246264,121.524871 31.246353,121.524687 31.246307)))",1,1,1505902058,1537235009,0,0,null,null,,,10,1026,-1,0,,1,1,2,1,121.524763,31.246276,null,null,2018-11-07 00:57:51,dw_etl,2018-11-07 00:57:51,dw_etl
20275,31011502313,,陆家嘴和颐酒店,,乐舒酒店(链家),上海市,1,浦东新区,310115,陆家嘴,1000904,潍坊西路73号,POINT(121.5231408 31.22931467),"MULTIPOLYGON(((121.523491 31.229052,121.523424 31.228952,121.523491 31.228744,121.524116 31.228886,121.524219 31.228952,121.524205 31.229068,121.524129 31.229311,121.523954 31.229269,121.523887 31.229164,121.523491 31.229052)))",1,1,1505902058,1537235009,0,0,null,null,,,10,2,-1,0,,1,1,2,0,121.5231408,31.22931467,null,null,2018-11-07 00:57:51,dw_etl,2018-11-07 00:57:51,dw_etl
20580,31011502360,,众盛公寓,,,上海市,1,浦东新区,310115,陆家嘴,1000904,浦电路53弄,POINT(121.5224762 31.22286251),"MULTIPOLYGON(((121.521111 31.222245,121.52218 31.222453,121.522144 31.222615,121.52262 31.222747,121.522898 31.221936,121.523662 31.22199,121.523707 31.221735,121.522629 31.221434,121.522728 31.220909,121.521937 31.220955,121.521587 31.220994,121.521488 31.22104,121.521111 31.222245)))",1,1,1505902058,1537235010,0,0,null,null,,,1195,1026,-1,0,,1,1,2,1,121.5224762,31.22286251,null,null,2018-11-07 00:57:51,dw_etl,2018-11-07 00:57:51,dw_etl
20674,31011502369,,港务大厦,,,上海市,1,浦东新区,310115,陆家嘴,1000904,丰和路1号,POINT(121.5043096 31.24606227),"MULTIPOLYGON(((121.504402 31.24636,121.505039 31.246699,121.505336 31.246468,121.505318 31.246371,121.504999 31.246259,121.504801 31.246225,121.504563 31.246225,121.504402 31.24634,121.504402 31.24636)))",1,1,1505902058,1537235010,0,0,null,POINT(121.50494 31.246428),,,1163,0,-1,0,,1,1,2,0,121.5043096,31.24606227,121.50494,31.246428,2018-11-07 00:57:51,dw_etl,2018-11-07 00:57:51,dw_etl
20776,31011502391,,世茂滨江花园,,,上海市,1,浦东新区,310115,陆家嘴,1000904,潍坊西路1弄潍坊西路2弄,POINT(121.520399 31.227414),"MULTIPOLYGON(((121.519233 31.226557,121.518892 31.227036,121.518371 31.229027,121.518155 31.229514,121.518012 31.229861,121.519009 31.230286,121.519458 31.229637,121.519593 31.229637,121.51988 31.229792,121.519979 31.229815,121.520752 31.230062,121.521677 31.228016,121.519359 31.226611,121.519233 31.226557)))",1,1,1505902058,1537235010,0,0,null,POINT(121.519779 31.228526),,,1199,1030,-1,0,,1,1,6,1,121.520399,31.227414,121.519779,31.228526,2018-11-07 00:57:51,dw_etl,2018-11-07 00:57:51,dw_etl
20868,31011502404,,房地大厦,,,上海市,1,浦东新区,310115,陆家嘴,1000904,南泉北路201号,POINT(121.522607 31.24148912),"MULTIPOLYGON(((121.522037 31.241508,121.522302 31.240964,121.523007 31.241254,121.522742 31.241767,121.522037 31.241508)))",1,1,1505902058,1537235010,0,0,POINT(121.52258120374 31.241500693491),POINT(121.522543 31.241386),,,1163,0,-1,0,,1,1,2,0,121.522607,31.24148912,121.522543,31.241386,2018-11-07 00:57:51,dw_etl,2018-11-07 00:57:51,dw_etl
21142,31011502443,,紫光大厦,,,上海市,1,浦东新区,310115,陆家嘴,1000904,商城路341号,POINT(121.5174673 31.2352219),"MULTIPOLYGON(((121.517288 31.235345,121.517638 31.2355,121.517791 31.235145,121.517503 31.234982,121.517288 31.235314,121.517288 31.235345)))",1,1,1505902058,1537235011,0,0,POINT(121.51777744945 31.235101003982),POINT(121.517472 31.235239),商城路335-1号-临,仁恒·滨江园,1195,1026,-1,0,,1,1,2,1,121.5174673,31.2352219,121.517472,31.235239,2018-11-07 00:57:51,dw_etl,2018-11-07 00:57:51,dw_etl
21377,31011502484,,浦城小区,,浦城路580弄小区(搜房),上海市,1,浦东新区,310115,陆家嘴,1000904,浦城路580弄,POINT(121.520704 31.230713),"MULTIPOLYGON(((121.520616 31.230692,121.52072 31.230742,121.520724 31.230711,121.522233 31.231282,121.522566 31.230665,121.522462 31.230502,121.520989 31.229962,121.520625 31.230645,121.520625 31.230645,121.520616 31.230692)))",1,1,1505902058,1537235011,0,0,POINT(121.5214954048 31.231325727423),POINT(121.521381 31.231082),浦城路580弄1-25号,浦城小区,1195,1026,-1,0,,1,1,2,1,121.520704,31.230713,121.521381,31.231082,2018-11-07 00:57:51,dw_etl,2018-11-07 00:57:51,dw_etl
21526,31011502506,,财富金融广场,,财富广场(搜房),上海市,1,浦东新区,310115,陆家嘴,1000904,浦明路100号,POINT(121.5115903 31.23614093),"MULTIPOLYGON(((121.511132 31.235871,121.511653 31.235909,121.513773 31.233076,121.513432 31.232845,121.511851 31.234118,121.510746 31.235269,121.510539 31.235678,121.511132 31.235871)))",1,1,1505902058,1537235012,0,0,POINT(121.51238878508 31.234916890512),POINT(121.511907 31.234767),浦明路99弄16号楼,,1163,0,-1,0,,1,1,2,0,121.5115903,31.23614093,121.511907,31.234767,2018-11-07 00:57:51,dw_etl,2018-11-07 00:57:51,dw_etl
21723,31011502532,,百富达公寓,,,上海市,1,浦东新区,310115,陆家嘴,1000904,浦东南路1650弄,POINT(121.5250634 31.22496662),"MULTIPOLYGON(((121.52465 31.224978,121.525369 31.225086,121.525405 31.224492,121.524902 31.224391,121.52465 31.224978)))",1,1,1505902058,1537235012,0,0,POINT(121.52456136912 31.224849613916),POINT(121.52504 31.224725),浦东南路1658,谢家宅小区,1195,1026,-1,0,,1,1,2,1,121.5250634,31.22496662,121.52504,31.224725,2018-11-07 00:57:51,dw_etl,2018-11-07 00:57:51,dw_etl
21752,31011502537,,东南新村42号,,,上海市,1,浦东新区,310115,陆家嘴,1000904,东南新村42号,POINT(121.52217020022 31.232068778732),"MULTIPOLYGON(((121.522961 31.232115,121.523082 31.23198,121.523176 31.232057,121.5231 31.232169,121.522961 31.232115)))",1,0,1505902058,1519292632,1519292632,0,POINT(121.52217020022 31.232068778732),null,张杨路370弄-44号,东南新村,2,2,-1,0,,1,1,0,1,121.52217020022,31.232068778732,null,null,2018-11-07 00:57:51,dw_etl,2018-11-07 00:57:51,dw_etl
21954,31011502570,,东南路51号,,,上海市,1,浦东新区,310115,陆家嘴,1000904,浦东南路51号,POINT(121.52519755267 31.222769290708),POINT(-1 -1),1,1,1505902058,1537235013,0,0,POINT(121.52519755267 31.222769290708),null,浦东南路1758号,东明新村小区,10,1026,-1,0,,9,1,2,1,121.52519755267,31.222769290708,null,null,2018-11-07 00:57:51,dw_etl,2018-11-07 00:57:51,dw_etl
21975,31011502575,,东泰大楼,,,上海市,1,浦东新区,310115,陆家嘴,1000904,东园三村331号东园三村335号,POINT(121.5211172 31.23627794),"MULTIPOLYGON(((121.520632 31.236397,121.521027 31.235533,121.521764 31.235764,121.521297 31.236691,121.520632 31.236413,121.520632 31.236397)))",1,1,1505902058,1537235013,0,0,POINT(121.52108828107 31.236398441533),POINT(121.521283 31.236004),浦东南路978号,东园三村小区,1195,0,-1,0,,1,1,2,1,121.5211172,31.23627794,121.521283,31.236004,2018-11-07 00:57:51,dw_etl,2018-11-07 00:57:51,dw_etl
22139,31011502594,,华申大厦,,,上海市,1,浦东新区,310115,陆家嘴,1000904,浦东南路1085号,POINT(121.5233293 31.23515173),"MULTIPOLYGON(((121.523329 31.235572,121.523204 31.235368,121.523114 31.235109,121.523172 31.234847,121.523433 31.234889,121.523603 31.235391,121.523329 31.235572)))",1,1,1505902058,1537235013,0,0,POINT(121.52338903731 31.235042615309),POINT(121.523384 31.235166),,,14,4,-1,0,,1,1,2,0,121.5233293,31.23515173,121.523384,31.235166,2018-11-07 00:57:51,dw_etl,2018-11-07 00:57:51,dw_etl
22155,31011502596,,中融碧玉蓝天大厦,,,上海市,1,浦东新区,310115,陆家嘴,1000904,银城中路8号,POINT(121.5139578 31.24712112),"MULTIPOLYGON(((121.513403 31.247638,121.514023 31.246716,121.514845 31.247206,121.514207 31.24812,121.513462 31.247677,121.513403 31.247638)))",1,0,1505902058,1527665171,1527665171,0,POINT(121.51403245061 31.247176840456),POINT(121.513865 31.247306),,,1026,0,-1,0,,1,1,2,0,121.5139578,31.24712112,121.513865,31.247306,2018-11-07 00:57:51,dw_etl,2018-11-07 00:57:51,dw_etl
22197,31011502600,,岚桥国际大厦,,,上海市,1,浦东新区,310115,陆家嘴,1000904,世纪大道1128号,POINT(121.5281194 31.23633893),"MULTIPOLYGON(((121.527639 31.236381,121.527666 31.236238,121.527944 31.235814,121.528353 31.235922,121.528133 31.236428,121.527639 31.236381)))",1,1,1505902058,1537235013,0,0,POINT(121.52817896578 31.236250312003),POINT(121.527936 31.236379),,,1167,4,-1,0,,1,1,2,0,121.5281194,31.23633893,121.527936,31.236379,2018-11-07 00:57:51,dw_etl,2018-11-07 00:57:51,dw_etl
22275,31011502616,,仁恒滨江园,,,上海市,1,浦东新区,310115,陆家嘴,1000904,浦明路99弄,POINT(121.514066 31.236233),"MULTIPOLYGON(((121.511744 31.23609,121.512741 31.23643,121.514133 31.23663,121.514358 31.236684,121.516244 31.237178,121.516343 31.237248,121.516846 31.237348,121.517439 31.236453,121.517816 31.235781,121.516846 31.235318,121.516577 31.235148,121.516568 31.235071,121.516702 31.234654,121.514924 31.233635,121.514017 31.233172,121.513621 31.23352,121.511744 31.23609)))",1,1,1505902058,1537235013,0,0,POINT(121.51393621873 31.234736836611),POINT(121.515075 31.235413),,,1167,1030,-1,0,,1,1,6,1,121.514066,31.236233,121.515075,31.235413,2018-11-07 00:57:51,dw_etl,2018-11-07 00:57:51,dw_etl
22283,31011502619,汇豪天下-菊园,汇豪天下,三期,,上海市,1,浦东新区,310115,陆家嘴,1000904,商城路108弄,POINT(121.516454 31.232879),"MULTIPOLYGON(((121.51640058015268 31.232418,121.51621 31.232345,121.514948 31.232827,121.515128 31.233333,121.515123 31.233599,121.515128 31.233595,121.516745 31.234549,121.516983 31.234607,121.517692 31.232986,121.517082 31.232727,121.51648980381898 31.232455503531252,121.516552 31.232476,121.51644568568796 31.232435277266436,121.516408 31.232418,121.51640058015268 31.232418)))",1,1,1505902058,1537235013,0,0,POINT(121.51757780734 31.233058866369),POINT(121.516334 31.233372),,,1199,1030,-1,0,,1,1,6,1,121.516454,31.232879,121.516334,31.233372,2018-11-07 00:57:51,dw_etl,2018-11-07 00:57:51,dw_etl
22411,31011502642,,崂山路80弄,,崂山六村(搜房),上海市,1,浦东新区,310115,陆家嘴,1000904,崂山路80弄,POINT(121.522671 31.24377475),"MULTIPOLYGON(((121.522204 31.244516,121.522406 31.244585,121.522702 31.244095,121.523381 31.244354,121.523524 31.244014,121.522675 31.243709,121.522545 31.243771,121.522204 31.244516)))",1,0,1505902058,1530868781,1530868781,0,POINT(121.52267100554 31.24377474843),null,,,3,1026,-1,0,,1,1,2,1,121.522671,31.24377475,null,null,2018-11-07 00:57:51,dw_etl,2018-11-07 00:57:51,dw_etl
22420,31011502646,,中国保险大厦,,,上海市,1,浦东新区,310115,陆家嘴,1000904,陆家嘴东路166号,POINT(121.5162363 31.24205644),"MULTIPOLYGON(((121.515589 31.242446,121.51545 31.242238,121.515697 31.241462,121.515899 31.241497,121.516331 31.242064,121.516304 31.242191,121.51669 31.242392,121.516308 31.242894,121.515589 31.242446)))",1,1,1505902058,1537235014,0,0,POINT(121.51582124547 31.242221689554),POINT(121.515949 31.242055),,,1162,0,-1,0,,1,1,2,0,121.5162363,31.24205644,121.515949,31.242055,2018-11-07 00:57:51,dw_etl,2018-11-07 00:57:51,dw_etl
22483,31011502656,,久阳滨江公寓,,,上海市,1,浦东新区,310115,陆家嘴,1000904,潍坊西路108弄1号,POINT(121.523797 31.228404),"MULTIPOLYGON(((121.523118 31.22858,121.52328 31.228132,121.523559 31.228001,121.524475 31.228379,121.524313 31.228842,121.523118 31.22858)))",1,1,1505902058,1537235014,0,0,POINT(121.52332770819 31.22806133535),POINT(121.523767 31.228501),,,1199,1030,-1,0,,1,1,6,1,121.523797,31.228404,121.523767,31.228501,2018-11-07 00:57:51,dw_etl,2018-11-07 00:57:51,dw_etl
22591,31011502675,,荣成路41弄,,荣成路41弄小区(搜房),上海市,1,浦东新区,310115,陆家嘴,1000904,荣成路41弄,POINT(121.524292 31.247303),"MULTIPOLYGON(((121.523991 31.247253,121.524054 31.247064,121.525172 31.247287,121.525132 31.247442,121.523991 31.247253)))",1,1,1505902058,1537235014,0,0,POINT(121.52437383347 31.247285589893),POINT(121.524708 31.247312),,,1163,1026,-1,0,,1,1,2,1,121.524292,31.247303,121.524708,31.247312,2018-11-07 00:57:51,dw_etl,2018-11-07 00:57:51,dw_etl
22616,31011502680,,金鼎公寓,,"金鼎公寓(浦东)(链家),金顶公寓(搜房)",上海市,1,浦东新区,310115,陆家嘴,1000904,浦东南路1038弄,POINT(121.521457 31.23428546),"MULTIPOLYGON(((121.520716 31.234424,121.520855 31.234177,121.521506 31.234412,121.521354 31.234659,121.520716 31.234424)))",1,1,1505902058,1537235014,0,0,POINT(121.52122681595 31.23455225101),POINT(121.52083 31.234355),,,1195,0,-1,0,,1,1,2,1,121.521457,31.23428546,121.52083,31.234355,2018-11-07 00:57:51,dw_etl,2018-11-07 00:57:51,dw_etl
22812,31011502715,,上海信息大楼,,,上海市,1,浦东新区,310115,陆家嘴,1000904,世纪大道211号,POINT(121.517268 31.24131553),"MULTIPOLYGON(((121.516711 31.241161,121.517025 31.241539,121.517277 31.241643,121.517915 31.241254,121.517744 31.240887,121.516729 31.241165,121.516711 31.241161)))",1,1,1505902058,1537235014,0,0,POINT(121.51721604534 31.24124212477),POINT(121.517403 31.241225),,,1163,0,-1,0,,1,1,2,0,121.517268,31.24131553,121.517403,31.241225,2018-11-07 00:57:51,dw_etl,2018-11-07 00:57:51,dw_etl
22920,31011502725,,崂山三村,,,上海市,1,浦东新区,310115,陆家嘴,1000904,崂山三村,POINT(121.5249362 31.24122816),POINT(-1 -1),1,1,1505902058,1537235015,0,0,POINT(121.52481427266 31.242481044176),POINT(121.525203 31.240773),,,1163,1026,-1,0,,10,1,2,1,121.5249362,31.24122816,121.525203,31.240773,2018-11-07 00:57:51,dw_etl,2018-11-07 00:57:51,dw_etl
22936,31011502729,,新梅万豪行政公寓,,,上海市,1,浦东新区,310115,陆家嘴,1000904,商城路506号,POINT(121.5227853 31.23564475),"MULTIPOLYGON(((121.522718 31.235691,121.522776 31.235626,121.52283 31.235711,121.522718 31.235691)))",1,1,1505902058,1537235015,0,0,POINT(121.52263187895 31.235751624998),null,,,10,0,-1,0,,1,1,2,0,121.5227853,31.23564475,null,null,2018-11-07 00:57:51,dw_etl,2018-11-07 00:57:51,dw_etl
23373,31011502793,,众鑫大厦,,,上海市,1,浦东新区,310115,陆家嘴,1000904,浦东南路1862弄20号,POINT(121.5242106 31.22134682),"MULTIPOLYGON(((121.523775 31.221779,121.524282 31.221868,121.524422 31.22159,121.524431 31.221161,121.523968 31.221181,121.523775 31.221779)))",1,1,1505902058,1537235016,0,0,POINT(121.52396177714 31.221699961782),POINT(121.524132 31.221544),浦东南路1882弄20号,众鑫大厦,1195,1154,-1,0,,1,1,2,1,121.5242106,31.22134682,121.524132,31.221544,2018-11-07 00:57:51,dw_etl,2018-11-07 00:57:51,dw_etl
23482,31011502812,,东方路248号,,,上海市,1,浦东新区,310115,陆家嘴,1000904,东方路284号,POINT(121.527647 31.242717),"MULTIPOLYGON(((121.527649 31.242755,121.527595 31.242698,121.52764 31.242701,121.527667 31.24274,121.527649 31.242755)))",1,0,1505902058,1520233062,1520233062,0,POINT(121.52722334838 31.243410821145),null,东方路284号,崂山二村,2,2,-1,0,,1,1,2,1,121.527647,31.242717,null,null,2018-11-07 00:57:51,dw_etl,2018-11-07 00:57:51,dw_etl
23562,31011502821,,南泉北路160号,,,上海市,1,浦东新区,310115,陆家嘴,1000904,南泉北路160号,POINT(121.52229 31.242945),"MULTIPOLYGON(((121.522288 31.242968,121.522243 31.242949,121.522346 31.242926,121.522333 31.242949,121.522288 31.242968)))",1,0,1505902058,1520234599,1520234599,0,POINT(121.52233161764 31.242967041742),null,南泉北路160-3,崂山五村,2,2,-1,0,,1,1,2,1,121.52229,31.242945,null,null,2018-11-07 00:57:51,dw_etl,2018-11-07 00:57:51,dw_etl
23566,31011502822,,崂山西路528号,,,上海市,1,浦东新区,310115,陆家嘴,1000904,崂山西路528号,POINT(121.524639 31.235392),"MULTIPOLYGON(((121.524641 31.23543,121.52461 31.235392,121.524682 31.235388,121.524668 31.235411,121.524641 31.23543)))",1,0,1505902058,1518427980,1518427980,0,POINT(121.48966196111 31.240657045917),null,南泉北路532号,,2,0,-1,0,,1,1,0,1,121.524639,31.235392,null,null,2018-11-07 00:57:51,dw_etl,2018-11-07 00:57:51,dw_etl
23619,31011502832,,浦江茗园,,,上海市,1,浦东新区,310115,陆家嘴,1000904,昌邑路55弄,POINT(121.51976 31.246646),"MULTIPOLYGON(((121.521177 31.246566,121.520404 31.247546,121.51832 31.246689,121.518895 31.245686,121.521177 31.246566)))",1,1,1505902058,1537235016,0,0,POINT(121.520406672 31.24638089994),POINT(121.520419 31.246381),昌邑路43号,浦江茗园,1199,1026,-1,0,,1,1,2,1,121.51976,31.246646,121.520419,31.246381,2018-11-07 00:57:51,dw_etl,2018-11-07 00:57:51,dw_etl
23631,31011502834,,乳山一村,,南泉北路301弄小区(搜房),上海市,1,浦东新区,310115,陆家嘴,1000904,崂山西路301弄,POINT(121.523109 31.24054),"MULTIPOLYGON(((121.521078 31.240523,121.523145 31.241233,121.523585 31.239389,121.522588 31.239111,121.520854 31.239674,121.520854 31.239674,121.520854 31.23969,121.521078 31.240523)))",1,1,1505902058,1537235016,0,0,POINT(121.52978797795 36.976575050291),POINT(121.523119 31.240503),南泉北路301号,,1163,1026,-1,0,,1,1,2,1,121.523109,31.24054,121.523119,31.240503,2018-11-07 00:57:51,dw_etl,2018-11-07 00:57:51,dw_etl
23694,31011502843,,东昌大楼,,,上海市,1,浦东新区,310115,陆家嘴,1000904,东昌路600号,POINT(121.520136 31.23861),"MULTIPOLYGON(((121.519488 31.238452,121.519807 31.237931,121.52049 31.238247,121.52022 31.238699,121.519493 31.238455,121.519488 31.238452)))",1,1,1505902058,1537235016,0,0,POINT(121.52013027507 31.238588088046),POINT(121.52014 31.238588),东昌路600号,东园一村,1195,1026,-1,0,,1,1,2,1,121.520136,31.23861,121.52014,31.238588,2018-11-07 00:57:51,dw_etl,2018-11-07 00:57:51,dw_etl
23777,31011502855,,潍坊西路714号,,,上海市,1,浦东新区,310115,陆家嘴,1000904,潍坊西路714号,POINT(121.524011 31.229056),POINT(-1 -1),1,0,1505902058,1518429231,1518429231,0,POINT(121.52435443007 31.22893563261),null,浦东南路1418号427室,,2,0,-1,0,,8,1,0,1,121.524011,31.229056,null,null,2018-11-07 00:57:51,dw_etl,2018-11-07 00:57:51,dw_etl
24016,31011502888,,中融恒瑞国际大厦,,,上海市,1,浦东新区,310115,陆家嘴,1000904,张杨路560号,POINT(121.5246969 31.23399515),"MULTIPOLYGON(((121.525077 31.233503,121.526271 31.233947,121.526438 31.233503,121.525193 31.233016,121.524973 31.233352,121.525032 31.233468,121.525077 31.233503)))",1,1,1505902058,1537235017,0,0,POINT(121.5253013375 31.233331949011),POINT(121.525825 31.233554),,,1198,4,-1,0,,1,1,2,0,121.5246969,31.23399515,121.525825,31.233554,2018-11-07 00:57:51,dw_etl,2018-11-07 00:57:51,dw_etl
24160,31011502911,,花旗集团大厦,,,上海市,1,浦东新区,310115,陆家嘴,1000904,花园石桥路33号,POINT(121.5070947 31.2393905),"MULTIPOLYGON(((121.507485 31.240382,121.506946 31.240074,121.506749 31.240012,121.506228 31.239703,121.506897 31.239008,121.507593 31.239537,121.507962 31.239873,121.507485 31.240382)))",1,1,1505902058,1537235017,0,0,POINT(121.50740254722 31.239740542099),POINT(121.507104 31.239685),,,1167,4,-1,0,,1,1,2,0,121.5070947,31.2393905,121.507104,31.239685,2018-11-07 00:57:51,dw_etl,2018-11-07 00:57:51,dw_etl
24230,31011502923,,汤臣一品,,,上海市,1,浦东新区,310115,陆家嘴,1000904,花园石桥路28弄,POINT(121.507923 31.238571),"MULTIPOLYGON(((121.508197 31.239601,121.507146 31.238864,121.508781 31.237475,121.509535 31.238061,121.508197 31.239601)))",1,1,1505902058,1537235017,0,0,POINT(121.5079925381 31.238931219973),POINT(121.508365 31.238519),,,5295,1030,-1,0,,1,1,6,1,121.507923,31.238571,121.508365,31.238519,2018-11-07 00:57:51,dw_etl,2018-11-07 00:57:51,dw_etl
24247,31011502924,,东宁路348号,,,上海市,1,浦东新区,310115,陆家嘴,1000904,东宁路348号,POINT(121.516957 31.239017),"MULTIPOLYGON(((121.516238 31.239086,121.516413 31.238785,121.516768 31.238897,121.5168 31.238785,121.517083 31.238862,121.517006 31.239075,121.516921 31.239052,121.516791 31.239245,121.516238 31.239086)))",1,1,1505902058,1537235017,0,0,POINT(121.51636859021 31.238966511248),null,,,10,0,-1,0,,1,1,2,0,121.516957,31.239017,null,null,2018-11-07 00:57:51,dw_etl,2018-11-07 00:57:51,dw_etl
24274,31011502931,,浦东大道112弄,,,上海市,1,浦东新区,310115,陆家嘴,1000904,浦东大道112弄,POINT(121.519702 31.244683),"MULTIPOLYGON(((121.519581 31.244694,121.519801 31.244571,121.519769 31.24471,121.519581 31.244694)))",1,0,1505902058,1524217752,1524217752,0,POINT(121.51963382473 31.244766666544),null,,,1034,2,-1,0,,1,1,2,1,121.519702,31.244683,null,null,2018-11-07 00:57:51,dw_etl,2018-11-07 00:57:51,dw_etl
24715,31011502991,,滨江兰庭,,,上海市,1,浦东新区,310115,陆家嘴,1000904,浦城路786弄,POINT(121.522806 31.226178),"MULTIPOLYGON(((121.522316 31.226647,121.522559 31.226705,121.522977 31.226632,121.523331 31.226018,121.523287 31.225678,121.522635 31.225462,121.522635 31.225462,121.522316 31.226647)))",1,1,1505902058,1537235018,0,0,POINT(121.52262594834 31.226003993345),POINT(121.522828 31.226116),,,5295,1030,-1,0,,1,1,6,1,121.522806,31.226178,121.522828,31.226116,2018-11-07 00:57:51,dw_etl,2018-11-07 00:57:51,dw_etl
25072,31011503046,,西霞路27号,,,上海市,1,浦东新区,310115,陆家嘴,1000904,栖霞路27号,POINT(121.520748 31.241185),"MULTIPOLYGON(((121.520703 31.241208,121.520761 31.2411,121.520802 31.241223,121.520703 31.241208)))",1,1,1505902058,1537235019,0,0,POINT(121.5207369996 31.241199867842),null,栖霞路27-1,招远小区,10,1026,-1,0,,1,1,2,1,121.520748,31.241185,null,null,2018-11-07 00:57:51,dw_etl,2018-11-07 00:57:51,dw_etl
25483,31011503112,,即墨路99号,,,上海市,1,浦东新区,310115,陆家嘴,1000904,即墨路99号,POINT(121.51947032505 31.245009534821),POINT(-1 -1),1,0,1505902058,1520232994,1520232994,0,POINT(121.51947032505 31.245009534821),null,即墨路95号,上船大楼,2,2,-1,0,,5,1,2,1,121.51947032505,31.245009534821,null,null,2018-11-07 00:57:51,dw_etl,2018-11-07 00:57:51,dw_etl
25581,31011503125,,天后宫,,,上海市,1,浦东新区,310115,陆家嘴,1000904,浦东南路1200弄,POINT(121.5222367 31.23310608),"MULTIPOLYGON(((121.5223 31.232535,121.522883 31.232755,121.523063 31.232307,121.522371 31.232048,121.522313 31.232126,121.522344 31.232176,121.522439 31.232211,121.522398 31.232322,121.522358 31.232319,121.522291 31.232531,121.5223 31.232535)))",1,0,1505902058,1520236461,1520236461,0,POINT(121.51233375489 31.249654505606),POINT(121.581869 31.362673),浦东南路1138号,,3,2,-1,0,,1,1,2,1,121.5222367,31.23310608,121.581869,31.362673,2018-11-07 00:57:51,dw_etl,2018-11-07 00:57:51,dw_etl
25771,31011503158,,荣城花苑,,,上海市,1,浦东新区,310115,陆家嘴,1000904,荣成路9弄,POINT(121.523856 31.24752),"MULTIPOLYGON(((121.523858 31.247456,121.524981 31.247583,121.524572 31.248672,121.523553 31.248529,121.523705 31.247514,121.523849 31.247452,121.523858 31.247456)))",1,1,1505902058,1537235021,0,0,POINT(121.52401272543 31.248171004114),POINT(121.5242 31.24804),荣成路9弄-1-～8号,荣城花苑,1199,1030,-1,0,,1,1,6,1,121.523856,31.24752,121.5242,31.24804,2018-11-07 00:57:51,dw_etl,2018-11-07 00:57:51,dw_etl
25800,31011503164,,乳山路82号,,,上海市,1,浦东新区,310115,陆家嘴,1000904,乳山路82号,POINT(121.5246677 31.23966788),"MULTIPOLYGON(((121.524614 31.239691,121.524695 31.239618,121.524704 31.239737,121.524614 31.239691)))",1,0,1505902058,1520239971,1520239971,0,POINT(121.52458933696 31.239665954126),null,乳山路82号,乳山二村,2,2,-1,0,,1,1,2,1,121.5246677,31.23966788,null,null,2018-11-07 00:57:51,dw_etl,2018-11-07 00:57:51,dw_etl
26158,31011503231,,上海国金中心,,,上海市,1,浦东新区,310115,陆家嘴,1000904,世纪大道8号,POINT(121.5072848 31.24325774),"MULTIPOLYGON(((121.508152 31.24252,121.508605 31.242791,121.508798 31.242343,121.508372 31.242073,121.508165 31.242096,121.508143 31.242524,121.508152 31.24252)))",1,1,1505902058,1537235021,0,0,POINT(121.50791171037 31.242260891689),POINT(121.509 31.242077),,,1167,4,-1,0,,1,1,2,0,121.5072848,31.24325774,121.509,31.242077,2018-11-07 00:57:51,dw_etl,2018-11-07 00:57:51,dw_etl
26461,31011503277,,隆宇大厦,,,上海市,1,浦东新区,310115,陆家嘴,1000904,浦东南路1036号,POINT(121.5216284 31.23476178),"MULTIPOLYGON(((121.521983 31.23514,121.521444 31.234928,121.521682 31.234441,121.522154 31.234596,121.521997 31.235144,121.521983 31.23514)))",1,1,1505902058,1537235022,0,0,POINT(121.521515817 31.234496119105),POINT(121.521825 31.23475),,,1198,4,-1,0,,1,1,2,0,121.5216284,31.23476178,121.521825,31.23475,2018-11-07 00:57:51,dw_etl,2018-11-07 00:57:51,dw_etl
26500,31011503283,,张杨路370弄,,张杨路370弄小区(搜房),上海市,1,浦东新区,310115,陆家嘴,1000904,张杨路370弄,POINT(121.520745 31.23180879),"MULTIPOLYGON(((121.520848 31.231261,121.520943 31.231052,121.521015 31.231076,121.5211 31.230852,121.521742 31.231083,121.5215 31.2315,121.520848 31.231261)))",1,1,1505902058,1537235022,0,0,POINT(121.5218189996 31.231845866576),null,,,1195,1026,-1,0,,1,1,2,1,121.520745,31.23180879,null,null,2018-11-07 00:57:51,dw_etl,2018-11-07 00:57:51,dw_etl
26734,31011503322,,荣成大厦,,,上海市,1,浦东新区,310115,陆家嘴,1000904,荣成路85弄,POINT(121.524121 31.246988),"MULTIPOLYGON(((121.523991 31.24703,121.524197 31.246417,121.524826 31.246552,121.524885 31.246579,121.525096 31.246606,121.525302 31.246629,121.525356 31.246702,121.525167 31.24727,121.52404 31.247042,121.523991 31.24703)))",1,1,1505902058,1537235023,0,0,POINT(121.52496973431 31.246795988357),POINT(121.524759 31.246663),,,1195,1026,-1,0,,1,1,2,1,121.524121,31.246988,121.524759,31.246663,2018-11-07 00:57:51,dw_etl,2018-11-07 00:57:51,dw_etl
26763,31011503326,,东园三村,,,上海市,1,浦东新区,310115,陆家嘴,1000904,东园三村301-335号,POINT(121.520992 31.235704),"MULTIPOLYGON(((121.519654 31.237074,121.520166 31.237201,121.520449 31.236144,121.520709 31.236182,121.520929 31.235553,121.520242 31.235399,121.519654 31.237074)))",1,1,1505902058,1537235023,0,0,POINT(121.52064883001 31.236344716624),POINT(121.521073 31.235587),,,1195,1026,-1,0,,1,1,2,1,121.520992,31.235704,121.521073,31.235587,2018-11-07 00:57:51,dw_etl,2018-11-07 00:57:51,dw_etl
26810,31011503331,,胜康廖氏大厦,,,上海市,1,浦东新区,310115,陆家嘴,1000904,商城路738号,POINT(121.525611 31.236321),"MULTIPOLYGON(((121.525482 31.236805,121.526039 31.237021,121.5262 31.235941,121.525652 31.235848,121.5255 31.236774,121.525482 31.236805)))",1,1,1505902058,1537235023,0,0,POINT(121.52575960716 31.23633934251),POINT(121.525835 31.236683),,,1163,0,-1,0,,1,1,2,0,121.525611,31.236321,121.525835,31.236683,2018-11-07 00:57:51,dw_etl,2018-11-07 00:57:51,dw_etl
26938,31011503354,,三航小区,,,上海市,1,浦东新区,310115,陆家嘴,1000904,浦东南路575弄浦东南路595弄,POINT(121.519434 31.241207),"MULTIPOLYGON(((121.518055 31.242564,121.519977 31.243289,121.520373 31.242587,121.519816 31.242302,121.520166 31.240858,121.519349 31.240611,121.518055 31.242564)))",1,1,1505902058,1537235023,0,0,POINT(121.5194916068 31.241550119768),POINT(121.519257 31.241863),,,1195,1026,-1,0,,1,1,2,1,121.519434,31.241207,121.519257,31.241863,2018-11-07 00:57:51,dw_etl,2018-11-07 00:57:51,dw_etl
27417,31011503431,,华能联合大厦,,,上海市,1,浦东新区,310115,陆家嘴,1000904,陆家嘴环路958号,POINT(121.513719 31.24584962),"MULTIPOLYGON(((121.51398 31.245075,121.514815 31.2455,121.515318 31.244767,121.514609 31.24425,121.51398 31.245068,121.51398 31.245075)))",1,1,1505902058,1537235024,0,0,POINT(121.51454297919 31.244700828541),null,银城东路101号,,1167,4,-1,0,,1,1,2,0,121.513719,31.24584962,null,null,2018-11-07 00:57:51,dw_etl,2018-11-07 00:57:51,dw_etl
27638,31011503454,,天后宫大楼,,天后宫(搜房),上海市,1,浦东新区,310115,陆家嘴,1000904,浦东南路1200号,POINT(121.5230001 31.23208684),"MULTIPOLYGON(((121.522389 31.232549,121.52256 31.232233,121.522996 31.232372,121.52282 31.232715,121.522394 31.232557,121.522389 31.232549)))",1,1,1505902058,1537235025,0,0,POINT(121.52295799978 31.232161866622),POINT(121.522728 31.232342),浦东南路1200号,东南新村,1195,1026,-1,0,,1,1,2,1,121.5230001,31.23208684,121.522728,31.232342,2018-11-07 00:57:51,dw_etl,2018-11-07 00:57:51,dw_etl
27687,31011503462,,东方金融广场,,,上海市,1,浦东新区,310115,陆家嘴,1000904,世纪大道1168号,POINT(121.5292145 31.23573816),"MULTIPOLYGON(((121.528289 31.23668,121.528936 31.235113,121.530481 31.235738,121.530526 31.235831,121.5304 31.236016,121.528289 31.23668)))",1,1,1505902058,1537235025,0,0,POINT(121.52921449734 31.235738157323),POINT(121.529293 31.235912),张杨路779-临,,1166,4,-1,0,,1,1,2,0,121.5292145,31.23573816,121.529293,31.235912,2018-11-07 00:57:51,dw_etl,2018-11-07 00:57:51,dw_etl
27816,31011503481,,世界广场,,,上海市,1,浦东新区,310115,陆家嘴,1000904,浦东南路855号,POINT(121.521221 31.23824),POINT(-1 -1),1,1,1505902058,1537235025,0,0,POINT(121.52131642641 31.237933423262),POINT(121.521544 31.238115),浦东南路855号27E,,1194,0,-1,0,,5,1,2,0,121.521221,31.23824,121.521544,31.238115,2018-11-07 00:57:51,dw_etl,2018-11-07 00:57:51,dw_etl
27901,31011503500,,南泉北路162号,,,上海市,1,浦东新区,310115,陆家嘴,1000904,南泉北路162号,POINT(121.52246124312 31.2427088938),"MULTIPOLYGON(((121.522403 31.242747,121.522474 31.242674,121.522479 31.242778,121.522403 31.242747)))",1,0,1505902058,1520234635,1520234635,0,POINT(121.52246124312 31.2427088938),null,南泉北路162,崂山五村,2,2,-1,0,,1,1,2,1,121.52246124312,31.2427088938,null,null,2018-11-07 00:57:51,dw_etl,2018-11-07 00:57:51,dw_etl
28302,31011503572,,大华银行大厦,,,上海市,1,浦东新区,310115,陆家嘴,1000904,银城路116号银城路128号,POINT(121.51607268034 31.247521600378),"MULTIPOLYGON(((121.518431 31.247729,121.5195 31.24776,121.519518 31.247359,121.519168 31.247143,121.518494 31.247119,121.518431 31.247729)))",1,1,1505902058,1537235026,0,0,POINT(121.51979455764 31.247656157396),POINT(121.518766 31.247619),,,14,4,-1,0,,1,1,2,0,121.51607268034,31.247521600378,121.518766,31.247619,2018-11-07 00:57:51,dw_etl,2018-11-07 00:57:51,dw_etl
28371,31011503581,,汇丰大厦,,,上海市,1,浦东新区,310115,陆家嘴,1000904,陆家嘴环路1000号,POINT(121.513889 31.245634),"MULTIPOLYGON(((121.513891 31.245676,121.513846 31.24563,121.513927 31.245599,121.513927 31.245649,121.513891 31.245676)))",1,1,1505902058,1537235026,0,0,POINT(121.51369404994 31.245784474968),null,,,1163,0,-1,0,,1,1,2,0,121.513889,31.245634,null,null,2018-11-07 00:57:51,dw_etl,2018-11-07 00:57:51,dw_etl
28555,31011503606,,保利ONE56,,,上海市,1,浦东新区,310115,陆家嘴,1000904,浦明路868弄,POINT(121.519858 31.224011),"MULTIPOLYGON(((121.517695 31.225956,121.518989 31.226427,121.520363 31.223941,121.518674 31.223539,121.517695 31.225956)))",1,1,1505902058,1537235027,0,0,POINT(121.51916389417 31.225835463022),null,,,5295,6,-1,0,,1,1,2,1,121.519858,31.224011,null,null,2018-11-07 00:57:51,dw_etl,2018-11-07 00:57:51,dw_etl
28604,31011503610,,东园四村,,,上海市,1,浦东新区,310115,陆家嘴,1000904,东园四村401-439号,POINT(121.5195493 31.23582416),"MULTIPOLYGON(((121.518538 31.236881,121.519531 31.237059,121.520133 31.235349,121.519082 31.23506,121.518426 31.236766,121.518462 31.236847,121.518543 31.236877,121.518538 31.236881)))",1,1,1505902058,1537235027,0,0,POINT(121.51807499159 31.236175754748),POINT(121.519874 31.23538),,,1195,1154,-1,0,,1,1,2,1,121.5195493,31.23582416,121.519874,31.23538,2018-11-07 00:57:51,dw_etl,2018-11-07 00:57:51,dw_etl
28696,31011503624,,华润时代广场,,,上海市,1,浦东新区,310115,陆家嘴,1000904,张杨路500号,POINT(121.5230493 31.23350023),"MULTIPOLYGON(((121.52321 31.23286,121.5248 31.233408,121.525079 31.232945,121.524836 31.232837,121.523426 31.232382,121.523192 31.232868,121.52321 31.23286)))",1,1,1505902058,1537235027,0,0,POINT(121.52387195018 31.232700768068),POINT(121.524192 31.232944),,,1163,0,-1,0,,1,1,2,0,121.5230493,31.23350023,121.524192,31.232944,2018-11-07 00:57:51,dw_etl,2018-11-07 00:57:51,dw_etl
28871,31011503657,,胜康斯米克大厦,,,上海市,1,浦东新区,310115,陆家嘴,1000904,商城路800号世纪大道1090号,POINT(121.5264609 31.23808863),"MULTIPOLYGON(((121.526182 31.236458,121.526272 31.235925,121.527152 31.236018,121.527026 31.236458,121.526254 31.236434,121.526182 31.236458)))",1,1,1505902058,1537235027,0,0,null,null,,,1162,0,-1,0,,1,1,2,0,121.5264609,31.23808863,null,null,2018-11-07 00:57:51,dw_etl,2018-11-07 00:57:51,dw_etl
29101,31011503681,,乐凯大厦,,,上海市,1,浦东新区,310115,陆家嘴,1000904,商城路660号,POINT(121.5246974 31.23702273),"MULTIPOLYGON(((121.524968 31.236519,121.52517 31.235709,121.525619 31.235825,121.52565 31.236083,121.525453 31.236666,121.524968 31.236519)))",1,1,1505902058,1537235028,0,0,POINT(121.52519193916 31.23649024722),POINT(121.5253 31.236165),商城路665号-c栋-2-～4楼,,14,4,-1,0,,1,1,2,0,121.5246974,31.23702273,121.5253,31.236165,2018-11-07 00:57:51,dw_etl,2018-11-07 00:57:51,dw_etl
29414,31011503731,,乳山路84号,,,上海市,1,浦东新区,310115,陆家嘴,1000904,乳山路84号,POINT(121.524859 31.239686),"MULTIPOLYGON(((121.52481 31.239709,121.52489 31.239647,121.524877 31.239748,121.52481 31.239709)))",1,0,1505902058,1520239971,1520239971,0,POINT(121.52509687957 31.23976243938),null,乳山路84号-5,乳山二村,2,2,-1,0,,1,1,2,1,121.524859,31.239686,null,null,2018-11-07 00:57:51,dw_etl,2018-11-07 00:57:51,dw_etl
30063,31011503815,,东方汇经中心,,,上海市,1,浦东新区,310115,陆家嘴,1000904,陆家嘴环路333号,POINT(121.5103171 31.23839813),"MULTIPOLYGON(((121.510402 31.239347,121.510452 31.238552,121.509801 31.238506,121.509747 31.239104,121.509715 31.239104,121.509697 31.239166,121.50976 31.239181,121.509747 31.239297,121.510402 31.239347)))",1,1,1505902058,1537235030,0,0,POINT(121.51005133127 31.238536176101),POINT(121.509905 31.238811),,,1163,0,-1,0,,1,1,2,0,121.5103171,31.23839813,121.509905,31.238811,2018-11-07 00:57:51,dw_etl,2018-11-07 00:57:51,dw_etl
30259,31011503846,,乳山路70号,,,上海市,1,浦东新区,310115,陆家嘴,1000904,乳山路70号,POINT(121.523779 31.23928),"MULTIPOLYGON(((121.52373 31.239307,121.523824 31.239237,121.523824 31.23933,121.52373 31.239307)))",1,0,1505902058,1520236197,1520236197,0,POINT(121.52390672628 31.239390266801),null,,,2,2,-1,0,,1,1,2,1,121.523779,31.23928,null,null,2018-11-07 00:57:51,dw_etl,2018-11-07 00:57:51,dw_etl
30267,31011503847,,浦东大道302号,,浦东大道302弄小区(搜房),上海市,1,浦东新区,310115,陆家嘴,1000904,浦东大道302号,POINT(121.5233 31.245208),"MULTIPOLYGON(((121.523219 31.245246,121.523354 31.24515,121.523345 31.245266,121.523219 31.245246)))",1,0,1505902058,1531106586,1531106586,0,POINT(121.52308485489 31.245198566558),null,,,1163,0,-1,0,,1,1,2,1,121.5233,31.245208,null,null,2018-11-07 00:57:51,dw_etl,2018-11-07 00:57:51,dw_etl
30313,31011503851,,上海银行大厦,,,上海市,1,浦东新区,310115,陆家嘴,1000904,银城中路168号,POINT(121.5100681 31.24522839),"MULTIPOLYGON(((121.511236 31.244931,121.510414 31.245722,121.511222 31.246212,121.512013 31.245375,121.511236 31.244935,121.511236 31.244931)))",1,1,1505902058,1538964582,0,0,POINT(121.51144776155 31.24512137652),POINT(121.511197 31.245565),,,1163,2,-1,0,,1,1,2,0,121.5100681,31.24522839,121.511197,31.245565,2018-11-07 00:57:51,dw_etl,2018-11-07 00:57:51,dw_etl
30380,31011503861,,东明广场,,,上海市,1,浦东新区,310115,陆家嘴,1000904,张杨路628弄1-3号,POINT(121.5256911 31.23446272),"MULTIPOLYGON(((121.52645749766342 31.23400095197937,121.526897 31.234157,121.527027 31.233759,121.526627 31.233644,121.52645749766342 31.23400095197937)),((121.526457 31.234002,121.52645749766342 31.23400095197937,121.526452 31.233999,121.526457 31.234002)))",1,1,1505902058,1537235030,0,0,POINT(121.52664016844 31.233660516032),POINT(121.527154 31.233985),,,1195,1026,-1,0,,1,1,2,1,121.5256911,31.23446272,121.527154,31.233985,2018-11-07 00:57:51,dw_etl,2018-11-07 00:57:51,dw_etl
30385,31011503862,,安泰公寓,,陈家宅小区(链家),上海市,1,浦东新区,310115,陆家嘴,1000904,潍坊西路84号,POINT(121.522552 31.228006),"MULTIPOLYGON(((121.521847 31.228006,121.522067 31.227492,121.522619 31.227693,121.523239 31.228164,121.523064 31.228539,121.521847 31.228006)))",1,1,1505902058,1537235030,0,0,POINT(121.52245100873 31.228168686884),POINT(121.52254 31.227989),,,10,1026,-1,0,,1,1,2,1,121.522552,31.228006,121.52254,31.227989,2018-11-07 00:57:51,dw_etl,2018-11-07 00:57:51,dw_etl
30602,31011503892,,浦东南路1380弄,,,上海市,1,浦东新区,310115,陆家嘴,1000904,浦东南路1380弄,POINT(121.5239658 31.22964198),"MULTIPOLYGON(((121.523539 31.22966,121.524006 31.229753,121.524051 31.229602,121.523589 31.229514,121.52353 31.229656,121.523539 31.22966)))",1,0,1505902058,1519292716,1519292716,0,POINT(121.5239658285 31.229641001057),null,,,2,2,-1,0,,1,1,0,1,121.5239658,31.22964198,null,null,2018-11-07 00:57:51,dw_etl,2018-11-07 00:57:51,dw_etl
30747,31011503919,,崂山五村,,,上海市,1,浦东新区,310115,陆家嘴,1000904,崂山五村，南泉北路160号，南泉北路162号，崂山路150弄，南泉北路170弄，崂山路149-159号（单号）,POINT(121.524189 31.243051),"MULTIPOLYGON(((121.523513 31.242704,121.522556 31.242372,121.522821 31.241874,121.52509 31.242796,121.524407 31.244116,121.524375 31.244155,121.524268 31.24417,121.524214 31.244162,121.522952 31.243684,121.523464 31.242754,121.523513 31.242704)))",1,1,1505902058,1534571383,0,0,POINT(121.52262573095 31.24238718605),POINT(121.523578 31.243042),,,1163,1154,-1,0,,1,1,2,1,121.524189,31.243051,121.523578,31.243042,2018-11-07 00:57:51,dw_etl,2018-11-07 00:57:51,dw_etl
30907,31011503946,,潍坊西路99号,,,上海市,1,浦东新区,310115,陆家嘴,1000904,潍坊西路99号,POINT(121.523064 31.228469),"MULTIPOLYGON(((121.522979 31.228507,121.523158 31.228392,121.523104 31.228562,121.522979 31.228507)))",1,0,1505902058,1526972117,1526972117,0,POINT(121.5230137091 31.228388843974),null,,,1162,0,-1,0,,1,1,2,1,121.523064,31.228469,null,null,2018-11-07 00:57:51,dw_etl,2018-11-07 00:57:51,dw_etl
31034,31011503968,,中粮海景壹号,,,上海市,1,浦东新区,310115,陆家嘴,1000904,银城中路600弄,POINT(121.510023 31.237331),"MULTIPOLYGON(((121.508933 31.23727,121.509742 31.238011,121.510766 31.238034,121.510937 31.236969,121.511242 31.23639,121.510317 31.236089,121.508933 31.237262,121.508933 31.23727)))",1,1,1505902058,1537235032,0,0,POINT(121.5101613674 31.237426592799),POINT(121.510156 31.237112),滨江大道2967号,中粮·海景壹号,5295,1030,-1,0,,1,1,6,1,121.510023,31.237331,121.510156,31.237112,2018-11-07 00:57:51,dw_etl,2018-11-07 00:57:51,dw_etl
31417,31011504026,,华夏银行大厦,,,上海市,1,浦东新区,310115,陆家嘴,1000904,浦东南路256号,POINT(121.515301 31.24548685),"MULTIPOLYGON(((121.515026 31.24574,121.515565 31.246045,121.515983 31.245392,121.515956 31.245196,121.515574 31.245018,121.515035 31.245728,121.515026 31.24574)))",1,1,1505902058,1537235033,0,0,POINT(121.51560033508 31.24556939943),POINT(121.515267 31.245336),浦东南路138号,,1167,4,-1,0,,1,1,2,0,121.515301,31.24548685,121.515267,31.245336,2018-11-07 00:57:51,dw_etl,2018-11-07 00:57:51,dw_etl
32063,31011504120,,陆家嘴滨江金融城,,,上海市,1,浦东新区,310115,陆家嘴,1000904,浦东南路银城路,POINT(121.517517 31.247389),"MULTIPOLYGON(((121.514732 31.248369,121.515038 31.247273,121.516376 31.245405,121.518361 31.246316,121.517634 31.247651,121.516762 31.24762,121.516457 31.248577,121.514732 31.248369)))",1,1,1505902058,1537235034,0,0,POINT(121.51775391025 31.247758640213),POINT(121.516446 31.246427),,,14,4,-1,0,,1,1,2,0,121.517517,31.247389,121.516446,31.246427,2018-11-07 00:57:51,dw_etl,2018-11-07 00:57:51,dw_etl
32299,31011504166,,丰强小区,,,上海市,1,浦东新区,310115,陆家嘴,1000904,银城路550弄,POINT(121.5190597 31.24772167),"MULTIPOLYGON(((121.519006 31.247795,121.519091 31.247679,121.519109 31.247795,121.519006 31.247795)))",1,1,1505902058,1537235034,0,0,POINT(121.51775391025 31.247758640213),POINT(121.51906 31.24772),,,10,1026,-1,0,,1,1,2,1,121.5190597,31.24772167,121.51906,31.24772,2018-11-07 00:57:51,dw_etl,2018-11-07 00:57:51,dw_etl
32690,31011504231,,上海黄金置地大厦,,,上海市,1,浦东新区,310115,陆家嘴,1000904,陆家嘴环路150号,POINT(121.5073509 31.24414987),"MULTIPOLYGON(((121.511007 31.247094,121.511542 31.246496,121.511182 31.246218,121.512085 31.245408,121.512664 31.245828,121.512741 31.246276,121.511721 31.247557,121.511007 31.247094)))",1,1,1505902058,1537235035,0,0,POINT(121.50725767828 31.243301446597),null,,,10,0,-1,0,,1,1,2,0,121.5073509,31.24414987,null,null,2018-11-07 00:57:51,dw_etl,2018-11-07 00:57:51,dw_etl
32740,31011504241,,新上海国际大厦,,,上海市,1,浦东新区,310115,陆家嘴,1000904,浦东南路360号,POINT(121.5155464 31.24559902),"MULTIPOLYGON(((121.515443 31.244696,121.515816 31.244059,121.516548 31.244406,121.516171 31.245124,121.515443 31.244696)))",1,1,1505902058,1537235035,0,0,POINT(121.51619943299 31.244624858528),POINT(121.51605 31.244513),,,1162,0,-1,0,,1,1,2,0,121.5155464,31.24559902,121.51605,31.244513,2018-11-07 00:57:51,dw_etl,2018-11-07 00:57:51,dw_etl
33433,31011504336,,远东大厦,,,上海市,1,浦东新区,310115,陆家嘴,1000904,浦东南路1101号,POINT(121.5222402 31.23369965),"MULTIPOLYGON(((121.524238 31.235543,121.524355 31.234802,121.524472 31.234331,121.524058 31.234339,121.523771 31.234517,121.523618 31.234794,121.523672 31.235111,121.523762 31.235327,121.524049 31.23552,121.524238 31.235551,121.524238 31.235543)))",1,1,1505902058,1537235037,0,0,POINT(121.52385722785 31.234749595804),POINT(121.524001 31.234857),浦东南路1112号,,1167,4,-1,0,,1,1,2,0,121.5222402,31.23369965,121.524001,31.234857,2018-11-07 00:57:51,dw_etl,2018-11-07 00:57:51,dw_etl
33521,31011504355,,福兴大厦,,,上海市,1,浦东新区,310115,陆家嘴,1000904,张杨路655号,POINT(121.5255859 31.2350452),"MULTIPOLYGON(((121.525692 31.234599,121.525844 31.234275,121.52646 31.234464,121.526284 31.234792,121.52571 31.234599,121.525692 31.234599)))",1,1,1505902058,1537235037,0,0,POINT(121.52597864279 31.234382886965),POINT(121.526077 31.234505),张杨路595号,,1163,0,-1,0,,1,1,2,0,121.5255859,31.2350452,121.526077,31.234505,2018-11-07 00:57:51,dw_etl,2018-11-07 00:57:51,dw_etl
33634,31011504377,,崂山六村,,浦东大道290弄小区(搜房),上海市,1,浦东新区,310115,陆家嘴,1000904,浦东大道290弄崂山路80弄,POINT(121.5236788 31.24491953),"MULTIPOLYGON(((121.523212 31.244931,121.523567 31.24409,121.524424 31.244356,121.524671 31.243939,121.525174 31.244105,121.524537 31.245367,121.523212 31.244931)))",1,1,1505902058,1537235037,0,0,POINT(121.52267100554 31.24377474843),POINT(121.524127 31.24467),浦东大道308-101号,崂六小区,1163,1026,-1,0,,1,1,2,1,121.5236788,31.24491953,121.524127,31.24467,2018-11-07 00:57:51,dw_etl,2018-11-07 00:57:51,dw_etl
33635,31011504378,,上港小区,,,上海市,1,浦东新区,310115,陆家嘴,1000904,浦东大道136弄南泉北路51号,POINT(121.52037 31.244438),"MULTIPOLYGON(((121.521255 31.244187,121.521749 31.243045,121.52046 31.242663,121.519728 31.244276,121.520437 31.244476,121.520608 31.244036,121.521255 31.244187)))",1,1,1505902058,1537235037,0,0,POINT(121.52186711194 31.243390521447),POINT(121.521044 31.243781),浦东大道136弄-甲49号-c-1室,上港小区,1195,1154,-1,0,,1,1,2,1,121.52037,31.244438,121.521044,31.243781,2018-11-07 00:57:51,dw_etl,2018-11-07 00:57:51,dw_etl
33650,31011504381,,星展银行大厦,,,上海市,1,浦东新区,310115,陆家嘴,1000904,陆家嘴环路1318号,POINT(121.5104496 31.24726074),"MULTIPOLYGON(((121.509228 31.248179,121.510333 31.246944,121.5108 31.247284,121.509866 31.248519,121.509228 31.248179)))",1,1,1505902058,1537235037,0,0,POINT(121.51006104195 31.247627582507),POINT(121.509954 31.247802),陆家嘴环路1318号,,10,2,-1,0,,1,1,2,0,121.5104496,31.24726074,121.509954,31.247802,2018-11-07 00:57:51,dw_etl,2018-11-07 00:57:51,dw_etl
33753,31011504405,,京城大厦,,,上海市,1,浦东新区,310115,陆家嘴,1000904,张家浜路37弄,POINT(121.522736 31.221705),"MULTIPOLYGON(((121.523693 31.221755,121.523257 31.221605,121.523347 31.221273,121.523199 31.221176,121.523248 31.220856,121.523985 31.220999,121.523693 31.221755)))",1,1,1505902058,1537235037,0,0,POINT(121.52354310569 31.221283612365),POINT(121.523564 31.221257),张家浜路10号,众盛公寓,1199,1030,-1,0,,1,1,2,1,121.522736,31.221705,121.523564,31.221257,2018-11-07 00:57:51,dw_etl,2018-11-07 00:57:51,dw_etl
33769,31011504407,,乳山三村,,,上海市,1,浦东新区,310115,陆家嘴,1000904,乳山路313弄,POINT(121.526196 31.238968),"MULTIPOLYGON(((121.524946 31.239903,121.525871 31.238236,121.527344 31.237749,121.527677 31.238074,121.526302 31.240397,121.524946 31.239903)))",1,1,1505902058,1537235037,0,0,POINT(121.53652728491 31.244582325443),POINT(121.526258 31.239051),崂山路287号,乳山三村,1195,1154,-1,0,,1,1,2,1,121.526196,31.238968,121.526258,31.239051,2018-11-07 00:57:51,dw_etl,2018-11-07 00:57:51,dw_etl
33944,31011504427,,浦电路44号,,,上海市,1,浦东新区,310115,陆家嘴,1000904,浦电路44,POINT(121.523584 31.223578),"MULTIPOLYGON(((121.523573 31.223613,121.523555 31.223559,121.523631 31.223582,121.5236 31.223609,121.523573 31.223613)))",1,0,1505902058,1520235372,1520235372,0,POINT(121.52369407311 31.223646236398),null,浦电路75号,,2,2,-1,0,,1,1,2,1,121.523584,31.223578,null,null,2018-11-07 00:57:51,dw_etl,2018-11-07 00:57:51,dw_etl
33997,31011504435,,崂山四村,,,上海市,1,浦东新区,310115,陆家嘴,1000904,崂山四村,POINT(121.5245127 31.24186451),"MULTIPOLYGON(((121.522923 31.241787,121.523453 31.240382,121.523623 31.239394,121.525456 31.240043,121.524252 31.242366,121.522923 31.241787)))",1,1,1505902058,1537235038,0,0,POINT(121.52394615022 31.242170679077),POINT(121.52483 31.240821),,,1195,1026,-1,0,,1,1,2,1,121.5245127,31.24186451,121.52483,31.240821,2018-11-07 00:57:51,dw_etl,2018-11-07 00:57:51,dw_etl
34362,31011504504,,金穗大厦,,,上海市,1,浦东新区,310115,陆家嘴,1000904,浦东南路379号,POINT(121.5170671 31.24497319),"MULTIPOLYGON(((121.51713 31.245575,121.516393 31.245205,121.516798 31.244633,121.51748 31.24485,121.51713 31.245575)))",1,1,1505902058,1538964671,0,0,POINT(121.51722668576 31.245004757141),null,,,1163,2,-1,0,,1,1,2,0,121.5170671,31.24497319,null,null,2018-11-07 00:57:51,dw_etl,2018-11-07 00:57:51,dw_etl
34514,31011504533,,荣成路17弄,,,上海市,1,浦东新区,310115,陆家嘴,1000904,荣成路17弄-1-～2号,POINT(121.524245 31.246412),"MULTIPOLYGON(((121.524214 31.246435,121.524303 31.246188,121.524793 31.246354,121.524685 31.246547,121.524214 31.246435)))",1,1,1505902058,1537235039,0,0,POINT(121.52430259605 31.246425668289),POINT(121.524341 31.246386),,,10,1026,-1,0,,1,1,2,1,121.524245,31.246412,121.524341,31.246386,2018-11-07 00:57:51,dw_etl,2018-11-07 00:57:51,dw_etl
34899,31011504592,,东港公寓,,东建大楼(搜房),上海市,1,浦东新区,310115,陆家嘴,1000904,浦东南路1700弄,POINT(121.5250557 31.22364831),"MULTIPOLYGON(((121.524818 31.223799,121.524961 31.223413,121.525429 31.22339,121.525455 31.223953,121.524818 31.223803,121.524818 31.223799)))",1,1,1505902058,1537235040,0,0,POINT(121.52479976772 31.223733169602),POINT(121.525103 31.223658),,,1195,1154,-1,0,,1,1,2,1,121.5250557,31.22364831,121.525103,31.223658,2018-11-07 00:57:51,dw_etl,2018-11-07 00:57:51,dw_etl
34957,31011504605,,崂山西路43号,,,上海市,1,浦东新区,310115,陆家嘴,1000904,崂山西路43号,POINT(121.522052 31.244361),"MULTIPOLYGON(((121.522281 31.243871,121.522348 31.243759,121.522389 31.243882,121.522281 31.243871)))",1,1,1505902058,1537235040,0,0,POINT(121.48966196111 31.240657045917),null,,,10,1026,-1,0,,1,1,2,1,121.522052,31.244361,null,null,2018-11-07 00:57:51,dw_etl,2018-11-07 00:57:51,dw_etl
34971,31011504607,,嘉华集团潍坊新村街道项目,,,上海市,1,浦东新区,310115,陆家嘴,1000904,浦东张家浜路,POINT(121.52487356082 31.220948866121),POINT(-1 -1),1,0,1505902058,1540886620,1540886620,0,POINT(121.6088853271 31.234656647506),null,,,4106,0,-1,0,,9,1,2,1,121.52487356082,31.220948866121,null,null,2018-11-07 00:57:51,dw_etl,2018-11-07 00:57:51,dw_etl
34995,31011504610,,崂山西路1054号,,,上海市,1,浦东新区,310115,陆家嘴,1000904,崂山西路1054号,POINT(121.52514 31.234729),POINT(-1 -1),1,0,1505902058,1518427956,1518427956,0,POINT(121.48966196111 31.240657045917),null,,,2,0,-1,0,,8,1,0,1,121.52514,31.234729,null,null,2018-11-07 00:57:51,dw_etl,2018-11-07 00:57:51,dw_etl
168261,31011505723,,商城路1317弄,,商城路1317弄小区(搜房),上海市,1,浦东新区,310115,陆家嘴,1000904,商城路1317弄,POINT(121.5375633 31.2420748),"MULTIPOLYGON(((121.536831 31.242488,121.537949 31.242874,121.538223 31.242364,121.537109 31.24194,121.536831 31.242488)))",1,1,1513058381,1537235297,0,0,null,null,,,1195,1154,-1,0,,1,1,2,1,121.5375633,31.2420748,null,null,2018-11-07 00:57:54,dw_etl,2018-11-07 00:57:54,dw_etl
168270,31011505732,,竹园商务公寓,,,上海市,1,浦东新区,310115,陆家嘴,1000904,福山路309号,POINT(121.5359303 31.2353837),"MULTIPOLYGON(((121.535634 31.235449,121.535876 31.234971,121.536123 31.23528,121.536433 31.23543,121.536222 31.235743,121.535634 31.235449)))",1,1,1513058382,1537235297,0,0,null,POINT(121.536016 31.235404),,,1197,1028,-1,0,,1,1,4,1,121.5359303,31.2353837,121.536016,31.235404,2018-11-07 00:57:54,dw_etl,2018-11-07 00:57:54,dw_etl
168276,31011505738,,松林公寓,,,上海市,1,浦东新区,310115,陆家嘴,1000904,乳山路200弄,POINT(121.5352799 31.2436988),"MULTIPOLYGON(((121.534719 31.243606,121.535316 31.243849,121.535415 31.243645,121.534808 31.243413,121.534719 31.243606)))",1,1,1513058382,1537235297,0,0,null,POINT(121.535416 31.243789),,,1193,0,-1,0,,1,1,0,1,121.5352799,31.2436988,121.535416,31.243789,2018-11-07 00:57:54,dw_etl,2018-11-07 00:57:54,dw_etl
168315,31011505777,,富都大厦,,,上海市,1,浦东新区,310115,陆家嘴,1000904,东方路1365号,POINT(121.5267705 31.2045401),POINT(-1 -1),1,0,1513058386,1530260205,1530260205,0,null,null,,,1033,0,-1,0,,10,1,0,1,121.5267705,31.2045401,null,null,2018-11-07 00:57:54,dw_etl,2018-11-07 00:57:54,dw_etl
168318,31011505780,,新场大街71弄,,,上海市,1,浦东新区,310115,陆家嘴,1000904,新场镇新场大街,POINT(121.654622 31.023713),"MULTIPOLYGON(((121.654442 31.023883,121.654662 31.023914,121.654716 31.023593,121.65442 31.023589,121.654442 31.023883)))",1,1,1513058387,1537235297,0,0,null,null,,,0,0,-1,0,,1,1,0,0,121.654622,31.023713,null,null,2018-11-07 00:57:54,dw_etl,2018-11-07 00:57:54,dw_etl
168355,31011505817,,隧成小区,,,上海市,1,浦东新区,310115,陆家嘴,1000904,乳山路160弄福山路48弄,POINT(121.5300718 31.2411495),"MULTIPOLYGON(((121.532399 31.241554,121.531918 31.242542,121.530638 31.242013,121.530934 31.24157,121.530651 31.241442,121.530894 31.24096,121.532399 31.241554)))",1,0,1513058390,1521535823,1521535823,0,null,POINT(121.531429 31.241845),,,1032,0,-1,0,,1,1,0,1,121.5300718,31.2411495,121.531429,31.241845,2018-11-07 00:57:54,dw_etl,2018-11-07 00:57:54,dw_etl
168358,31011505820,,东园公寓,,,上海市,1,浦东新区,310115,陆家嘴,1000904,东园一村138号139号,POINT(121.5188603 31.238004),"MULTIPOLYGON(((121.518811 31.238162,121.519192 31.238282,121.519305 31.237876,121.518923 31.237776,121.518811 31.238162)))",1,1,1513058391,1537235297,0,0,null,POINT(121.519266 31.237859),,,8,0,-1,0,,1,1,0,1,121.5188603,31.238004,121.519266,31.237859,2018-11-07 00:57:54,dw_etl,2018-11-07 00:57:54,dw_etl
168361,31011505823,,潍坊十一村,,,上海市,1,浦东新区,310115,陆家嘴,1000904,浦电路331弄,POINT(121.532375 31.231303),POINT(-1 -1),1,0,1513058391,1539315234,1539315234,0,null,null,,,8,128,-1,0,,10,1,0,1,121.532375,31.231303,null,null,2018-11-07 00:57:54,dw_etl,2018-11-07 00:57:54,dw_etl
168686,31011505837,,潍坊十村一小区,,潍坊路150号(链家),上海市,1,浦东新区,310115,陆家嘴,1000904,潍坊路150号,POINT(121.532162 31.23139),"MULTIPOLYGON(((121.530599 31.230861,121.533065 31.231683,121.533541 31.230521,121.53099 31.229757,121.530599 31.230861)))",1,1,1513058423,1537235298,0,0,null,POINT(121.532094 31.230664),,,10,128,-1,0,,1,1,2,1,121.532162,31.23139,121.532094,31.230664,2018-11-07 00:57:54,dw_etl,2018-11-07 00:57:54,dw_etl
172769,31011503001,,新场村,,,上海市,1,浦东新区,310115,陆家嘴,1000904,新场村,POINT(121.651464 31.025342),"MULTIPOLYGON(((121.651154 31.025417,121.651469 31.025502,121.6515 31.02534,121.651208 31.025282,121.651154 31.025417)))",1,1,1514167172,1537235307,0,0,null,POINT(121.651299 31.025383),,,0,0,-1,0,,1,1,0,0,121.651464,31.025342,121.651299,31.025383,2018-11-07 00:57:54,dw_etl,2018-11-07 00:57:54,dw_etl
172770,31011503019,,上海国际商城,,,上海市,1,浦东新区,310115,陆家嘴,1000904,浦东南路1078号,POINT(121.522117 31.234127),POINT(-1 -1),1,1,1514167172,1537235307,0,0,null,null,,,0,0,-1,0,,10,1,0,0,121.522117,31.234127,null,null,2018-11-07 00:57:54,dw_etl,2018-11-07 00:57:54,dw_etl
172782,31011503459,,大华诺斐湾,,大华锦绣华城（十七街区）(运营),上海市,1,浦东新区,310115,陆家嘴,1000904,成山路1850弄,POINT(121.539368 31.183594),"MULTIPOLYGON(((121.539386 31.183231,121.539107 31.18313,121.538721 31.182976,121.539009 31.182095,121.53935 31.181192,121.539655 31.180327,121.539835 31.179879,121.540069 31.179732,121.540356 31.179832,121.540482 31.179995,121.540967 31.180049,121.541066 31.180242,121.539593 31.182883,121.539386 31.183231)))",1,1,1514167174,1537235307,0,0,null,POINT(121.539918 31.181292),,,5291,1026,-1,0,,1,1,0,1,121.539368,31.183594,121.539918,31.181292,2018-11-07 00:57:54,dw_etl,2018-11-07 00:57:54,dw_etl
172784,31011503527,,崂山西路170弄,,,上海市,1,浦东新区,310115,陆家嘴,1000904,崂山西路170弄,POINT(121.523153 31.241856),POINT(-1 -1),1,0,1514167174,1525315645,1525315645,0,null,null,,,1032,0,-1,0,,10,1,0,1,121.523153,31.241856,null,null,2018-11-07 00:57:54,dw_etl,2018-11-07 00:57:54,dw_etl
172798,31011503816,,奶牛场住宅房,,,上海市,1,浦东新区,310115,陆家嘴,1000904,奉新路353弄,POINT(121.5337716 30.8311357),POINT(-1 -1),1,1,1514167175,1537235307,0,0,null,null,,,0,0,-1,0,,10,1,0,1,121.5337716,30.8311357,null,null,2018-11-07 00:57:54,dw_etl,2018-11-07 00:57:54,dw_etl
172808,31011503911,,松山小区,,,上海市,1,浦东新区,310115,陆家嘴,1000904,松林路88弄1~36号,POINT(121.5363001 31.2395417),"MULTIPOLYGON(((121.536066 31.240088,121.53546 31.239768,121.535599 31.239293,121.534948 31.239189,121.534971 31.238849,121.535258 31.238282,121.535882 31.238467,121.53665 31.238691,121.536102 31.240015,121.536066 31.240088)))",1,0,1514167176,1527664069,1527664069,0,null,null,,,1032,0,-1,0,,1,1,0,1,121.5363001,31.2395417,null,null,2018-11-07 00:57:54,dw_etl,2018-11-07 00:57:54,dw_etl
173366,31011504673,,安心公寓浦东大道店,,,上海市,1,浦东新区,310115,陆家嘴,1000904,浦东大道2552号,POINT(121.568348 31.265233),"MULTIPOLYGON(((121.568715 31.265554,121.568975 31.265222,121.568436 31.264894,121.568225 31.264825,121.568055 31.265064,121.568095 31.265153,121.568643 31.265508,121.568715 31.265554)))",1,1,1514167260,1537235308,0,0,POINT(121.56838783905 31.265222884611),null,,,0,0,-1,0,,1,1,0,0,121.568348,31.265233,null,null,2018-11-07 00:57:54,dw_etl,2018-11-07 00:57:54,dw_etl
173370,31011504675,,安心公寓迪斯尼一店,,,上海市,1,浦东新区,310115,陆家嘴,1000904,康桥路1157号C号楼2楼,POINT(121.579227 31.156163),POINT(-1 -1),1,1,1514167260,1537235308,0,0,POINT(121.57937392769 31.156165806226),null,,,0,0,-1,0,,10,1,0,0,121.579227,31.156163,null,null,2018-11-07 00:57:54,dw_etl,2018-11-07 00:57:54,dw_etl
173378,31011504678,,万科泊寓翡翠公园店,,,上海市,1,浦东新区,310115,陆家嘴,1000904,百业路167弄31号,POINT(121.615401 31.184441),"MULTIPOLYGON(((121.6155 31.18535,121.616263 31.185659,121.616389 31.185443,121.615545 31.185157,121.6155 31.18535)))",1,1,1514167261,1537235308,0,0,POINT(121.61621925139 31.185439913403),null,,,0,0,-1,0,,1,1,0,0,121.615401,31.184441,null,null,2018-11-07 00:57:54,dw_etl,2018-11-07 00:57:54,dw_etl
173379,31011504679,,万科泊寓张江国创中心店,,,上海市,1,浦东新区,310115,陆家嘴,1000904,丹桂路899号,POINT(121.634847 31.225048),"MULTIPOLYGON(((121.634079 31.226899,121.635534 31.226181,121.634025 31.223664,121.632525 31.224436,121.634079 31.226899)))",1,1,1514167261,1537235308,0,0,POINT(121.63391671434 31.22572507602),null,,,0,0,-1,0,,1,1,0,0,121.634847,31.225048,null,null,2018-11-07 00:57:54,dw_etl,2018-11-07 00:57:54,dw_etl
173429,31011504701,,国金汇公寓,,,上海市,1,浦东新区,310115,陆家嘴,1000904,世纪大道8号,POINT(121.5075965 31.2419943),"MULTIPOLYGON(((121.507449 31.242532,121.508226 31.242532,121.508365 31.242602,121.50867 31.243049,121.50995 31.242474,121.509964 31.242393,121.509762 31.241614,121.510211 31.241375,121.510305 31.240495,121.510197 31.240398,121.509618 31.240448,121.50951 31.240606,121.508913 31.241,121.508899 31.241382,121.507453 31.241347,121.507444 31.24244,121.507449 31.242532)))",1,1,1514167266,1537235308,0,0,POINT(121.50791171037 31.242260891689),null,,,0,0,-1,0,,1,1,0,0,121.5075965,31.2419943,null,null,2018-11-07 00:57:54,dw_etl,2018-11-07 00:57:54,dw_etl
173430,31011504702,,中融碧玉蓝天,,,上海市,1,浦东新区,310115,陆家嘴,1000904,银城中路8号,POINT(121.5150474 31.2035341),POINT(-1 -1),1,1,1514167266,1537235308,0,0,POINT(121.51403245061 31.247176840456),null,,,1167,4,-1,0,,5,1,0,0,121.5150474,31.2035341,null,null,2018-11-07 00:57:54,dw_etl,2018-11-07 00:57:54,dw_etl
173431,31011504703,,汤臣中心,,,上海市,1,浦东新区,310115,陆家嘴,1000904,张杨路158号张杨路188号张杨路228号,POINT(121.5181956 31.2305265),POINT(-1 -1),1,0,1514167266,1527664596,1527664596,0,POINT(121.51840333213 31.230784125397),POINT(121.518426 31.230627),,,1032,0,-1,0,,5,1,0,0,121.5181956,31.2305265,121.518426,31.230627,2018-11-07 00:57:54,dw_etl,2018-11-07 00:57:54,dw_etl
173436,31011504708,,九阳滨江酒店式公寓,,,上海市,1,浦东新区,310115,陆家嘴,1000904,浦东南路1388弄,POINT(121.5240923 31.2296031),POINT(-1 -1),1,1,1514167267,1537235309,0,0,POINT(121.52457969434 31.228603138945),POINT(121.5238 31.228452),,,0,0,-1,0,,5,1,0,0,121.5240923,31.2296031,121.5238,31.228452,2018-11-07 00:57:54,dw_etl,2018-11-07 00:57:54,dw_etl
173460,31011504709,,华都大厦,,,上海市,1,浦东新区,310115,陆家嘴,1000904,华都大厦,POINT(121.529803 31.234547),"MULTIPOLYGON(((121.528995 31.234898,121.530095 31.235242,121.530544 31.234226,121.529372 31.233887,121.528995 31.234898)))",1,1,1514167269,1537235309,0,0,POINT(121.53000083086 31.234592237933),POINT(121.529877 31.23454),,,14,4,-1,0,,1,1,0,0,121.529803,31.234547,121.529877,31.23454,2018-11-07 00:57:54,dw_etl,2018-11-07 00:57:54,dw_etl
173477,31011504711,,邦臣万源酒店公寓,,,上海市,1,浦东新区,310115,陆家嘴,1000904,浦东大道599弄,POINT(121.610687 31.080375),POINT(-1 -1),1,1,1514167271,1537235309,0,0,POINT(121.52852372286 31.247310505912),null,,,0,0,-1,0,,10,1,0,0,121.610687,31.080375,null,null,2018-11-07 00:57:54,dw_etl,2018-11-07 00:57:54,dw_etl
173526,31011504727,,招商局大厦,,,上海市,1,浦东新区,310115,陆家嘴,1000904,陆家嘴东路161号,POINT(121.515691 31.243285),"MULTIPOLYGON(((121.515013 31.24335,121.515875 31.243779,121.516212 31.243219,121.515817 31.242938,121.515278 31.24266,121.515013 31.24335)))",1,1,1514167275,1537235309,0,0,POINT(121.51561795983 31.243252823004),POINT(121.515337 31.243226),,,42,0,-1,0,,1,1,0,0,121.515691,31.243285,121.515337,31.243226,2018-11-07 00:57:54,dw_etl,2018-11-07 00:57:54,dw_etl
179433,,,商城路912号,,,上海市,1,浦东新区,310115,陆家嘴,1000904,商城路912号,POINT(121.52897 31.238104),"MULTIPOLYGON(((121.528849 31.238193,121.52901 31.238247,121.529073 31.238088,121.528889 31.238061,121.528849 31.238193)))",1,0,1516947100,1527759116,1527759116,0,null,null,,,1032,2048,-1,0,,1,1,0,1,121.52897,31.238104,null,null,2018-11-07 00:57:54,dw_etl,2018-11-07 00:57:54,dw_etl
179636,31011504746,,梅园高层小区,,,上海市,1,浦东新区,310115,陆家嘴,1000904,东方路573弄,POINT(121.5315854 31.2370024),"MULTIPOLYGON(((121.530808 31.237608,121.531531 31.237835,121.532232 31.236319,121.531895 31.236257,121.531414 31.236407,121.530988 31.237125,121.530808 31.237608)))",1,1,1517219710,1537235325,0,0,null,null,,,8,0,-1,0,,1,1,0,1,121.5315854,31.2370024,null,null,2018-11-07 00:57:54,dw_etl,2018-11-07 00:57:54,dw_etl
179677,31011504751,,旭辉领寓柚米国际社区陆家嘴店,,,上海市,1,浦东新区,310115,陆家嘴,1000904,浦电路318号优米国际社区,POINT(121.532976 31.226401),POINT(-1 -1),1,1,1517969068,1537235325,0,0,null,null,,,0,0,-1,0,,10,1,0,0,121.532976,31.226401,null,null,2018-11-07 00:57:54,dw_etl,2018-11-07 00:57:54,dw_etl
180874,31011504802,,浦东大道651弄小区,,,上海市,1,浦东新区,310115,陆家嘴,1000904,浦东浦东大道651弄5-13号,POINT(121.530136 31.247071),"MULTIPOLYGON(((121.52957 31.247391,121.530374 31.247364,121.530603 31.247407,121.530733 31.246677,121.52979 31.246619,121.529575 31.247387,121.52957 31.247391)))",1,1,1519636703,1537235328,0,0,null,null,,,1193,0,-1,0,,1,1,0,1,121.530136,31.247071,null,null,2018-11-07 00:57:54,dw_etl,2018-11-07 00:57:54,dw_etl
181582,31011504834,,东安大楼,,,上海市,1,浦东新区,310115,陆家嘴,1000904,浦东东园四村436439号,POINT(121.518243 31.236193),"MULTIPOLYGON(((121.517884 31.236011,121.518369 31.236108,121.51827 31.236405,121.517749 31.236301,121.517888 31.236019,121.517884 31.236011)))",1,1,1519807019,1537235330,0,0,null,null,,,1193,0,-1,0,,1,1,0,1,121.518243,31.236193,null,null,2018-11-07 00:57:54,dw_etl,2018-11-07 00:57:54,dw_etl
182135,31011504899,,商城路102号,,,上海市,1,浦东新区,310115,陆家嘴,1000904,商城路102号,POINT(121.516423 31.232145),"MULTIPOLYGON(((121.516214 31.232175,121.5166 31.232341,121.516775 31.232121,121.516668 31.231921,121.516286 31.232091,121.516214 31.232175)))",1,0,1520213986,1531106598,1531106598,0,null,null,,,1162,2,-1,0,,1,1,0,1,121.516423,31.232145,null,null,2018-11-07 00:57:54,dw_etl,2018-11-07 00:57:54,dw_etl
